[{"ID":"1","zip":"6870","city":"SAINT-HUBERT","street":"AVENUE DES CHASSEURS ARDENNAIS 6","lat":"50.027464","lng":"5.372196","partner":"shell","has_products":1,"lpg":"0","cng":"0","igo":"0","shop":"1","adblue":"0","light":"0"},{"ID":"2","zip":"6900","city":"WAHA","street":"RTE. DE BASTOGNE 132","lat":"50.2025","lng":"5.36833","partner":"shell","has_products":1,"lpg":"0","cng":"0","igo":"0","shop":"0","adblue":"0","light":"0"},{"ID":"3","zip":"6900","city":"WAHA","street":"ROUTE DE BASTOGNE 132","lat":"50.202547","lng":"5.368283","partner":"shell","has_products":1,"lpg":"0","cng":"0","igo":"0","shop":"0","adblue":"0","light":"1"},{"ID":"4","zip":"4780","city":"Saint-Vith","street":"STEINERBERG 3","lat":"50.289668","lng":"6.094369","partner":"shell","has_products":1,"lpg":"0","cng":"0","igo":"0","shop":"0","adblue":"0","light":"0"},{"ID":"5","zip":"6560","city":"Erquelinnes","street":"RUE ALBERT IER 227","lat":"50.305236","lng":"4.115143","partner":"shell","has_products":1,"lpg":"0","cng":"0","igo":"0","shop":"0","adblue":"0","light":"1"},{"ID":"6","zip":"5590","city":"CINEY","street":"RUE SAINT GILLES 71","lat":"50.311566","lng":"5.122919","partner":"shell","has_products":1,"lpg":"0","cng":"0","igo":"0","shop":"1","adblue":"0","light":"0"},{"ID":"7","zip":"7041","city":"HAVAY","street":"ROUTE DE MONS-MAUBEUGE 6 A","lat":"50.345466","lng":"3.970173","partner":"shell","has_products":1,"lpg":"1","cng":"0","igo":"0","shop":"1","adblue":"0","light":"0"},{"ID":"8","zip":"6001","city":"MARCINELLE","street":"AVENUE EUGENE MASCAUX 875","lat":"50.380091","lng":"4.425589","partner":"shell","has_products":1,"lpg":"1","cng":"0","igo":"0","shop":"0","adblue":"0","light":"1"},{"ID":"9","zip":"6032","city":"MONT-SUR-MARCHIENNE","street":"RUE DE BOMEREE 54","lat":"50.384207","lng":"4.402286","partner":"shell","has_products":1,"lpg":"1","cng":"1","igo":"0","shop":"0","adblue":"0","light":"1"},{"ID":"10","zip":"5336","city":"COURRIERE","street":"CHAUSSEE DE LUXEMBOURG 7","lat":"50.385836","lng":"4.994471","partner":"shell","has_products":1,"lpg":"1","cng":"0","igo":"0","shop":"0","adblue":"0","light":"1"},{"ID":"11","zip":"6010","city":"COUILLET","street":"ROUTE DE PHILIPPEVILLE 2","lat":"50.393336","lng":"4.457241","partner":"shell","has_products":1,"lpg":"1","cng":"0","igo":"0","shop":"0","adblue":"0","light":"1"},{"ID":"12","zip":"4760","city":"BULLINGEN","street":"MORSHECK 6","lat":"50.395693","lng":"6.236259","partner":"shell","has_products":1,"lpg":"1","cng":"0","igo":"0","shop":"0","adblue":"0","light":"1"},{"ID":"13","zip":"7380","city":"QUIEVRAIN","street":"RUE DE VALENCIENNES 91","lat":"50.403713","lng":"3.676057","partner":"shell","has_products":1,"lpg":"1","cng":"0","igo":"0","shop":"0","adblue":"0","light":"1"},{"ID":"14","zip":"7134","city":"BINCHE","street":"ROUTE DE CHARLEROI 195","lat":"50.40916","lng":"4.20629","partner":"shell","has_products":1,"lpg":"1","cng":"0","igo":"0","shop":"0","adblue":"0","light":"1"},{"ID":"15","zip":"5100","city":"WEPION","street":"CHAUSSEE DE DINANT 1137","lat":"50.411122","lng":"4.881009","partner":"shell","has_products":1,"lpg":"1","cng":"0","igo":"0","shop":"0","adblue":"0","light":"1"},{"ID":"16","zip":"4960","city":"MALMEDY","street":"AVENUE DES ALLIES 84","lat":"50.422981","lng":"6.016559","partner":"shell","has_products":1,"lpg":"1","cng":"0","igo":"0","shop":"0","adblue":"0","light":"1"},{"ID":"17","zip":"7012","city":"JEMAPPES","street":"AVENUE MARECHAL FOCH 934","lat":"50.44662","lng":"3.875796","partner":"shell","has_products":1,"lpg":"1","cng":"0","igo":"0","shop":"0","adblue":"0","light":"1"},{"ID":"18","zip":"7012","city":"JEMAPPES","street":"AVEN PRESIDENT WILSON 429","lat":"50.4493","lng":"3.90534","partner":"shell","has_products":1,"lpg":"1","cng":"1","igo":"0","shop":"0","adblue":"0","light":"1"},{"ID":"19","zip":"7000","city":"MONS","street":"CHAUSSEE DE BINCHE 191 A","lat":"50.449594","lng":"3.988996","partner":"shell","has_products":1,"lpg":"1","cng":"0","igo":"0","shop":"0","adblue":"0","light":"1"},{"ID":"20","zip":"6040","city":"JUMET","street":"CHAUSSEE DE BRUXELLES 376","lat":"50.4513","lng":"4.43376","partner":"shell","has_products":1,"lpg":"1","cng":"0","igo":"0","shop":"0","adblue":"0","light":"1"},{"ID":"21","zip":"6041","city":"GOSSELIES","street":"RUE TAHON 10","lat":"50.46004","lng":"4.436549","partner":"shell","has_products":1,"lpg":"1","cng":"0","igo":"0","shop":"0","adblue":"0","light":"1"},{"ID":"22","zip":"6041","city":"GOSSELIES","street":"CHAUSSEE DE COURCELLES 210","lat":"50.462235","lng":"4.414696","partner":"shell","has_products":1,"lpg":"1","cng":"0","igo":"0","shop":"0","adblue":"0","light":"1"},{"ID":"23","zip":"5100","city":"JAMBES","street":"AV PRINCE DE LIEGE 110","lat":"50.463385","lng":"4.885092","partner":"shell","has_products":1,"lpg":"1","cng":"0","igo":"0","shop":"0","adblue":"0","light":"1"},{"ID":"24","zip":"7100","city":"HAINE-SAINT-PIERRE","street":"CHAUSSEE DE REDEMONT 21","lat":"50.467468","lng":"4.208907","partner":"shell","has_products":1,"lpg":"1","cng":"0","igo":"0","shop":"0","adblue":"0","light":"1"},{"ID":"25","zip":"7100","city":"LA LOUVIERE","street":"RUE HAMOIR 78","lat":"50.474687","lng":"4.190663","partner":"shell","has_products":1,"lpg":"1","cng":"0","igo":"0","shop":"0","adblue":"0","light":"1"},{"ID":"26","zip":"5004","city":"BOUGE","street":"CHAUSSEE DE LOUVAIN 350","lat":"50.478774","lng":"4.87983","partner":"shell","has_products":1,"lpg":"1","cng":"0","igo":"0","shop":"0","adblue":"0","light":"1"},{"ID":"27","zip":"5140","city":"SOMBREFFE","street":"RUE DU CHATEAU DU FAYS 8","lat":"50.485962","lng":"4.592658","partner":"shell","has_products":1,"lpg":"1","cng":"0","igo":"0","shop":"0","adblue":"0","light":"1"},{"ID":"28","zip":"6220","city":"FLEURUS","street":"CHAUSSEE DE CHARLEROI 33","lat":"50.48769","lng":"4.559081","partner":"shell","has_products":1,"lpg":"1","cng":"0","igo":"0","shop":"0","adblue":"0","light":"1"},{"ID":"29","zip":"4900","city":"SPA","street":"AVENUE REINE ASTRID 159","lat":"50.490625","lng":"5.8485","partner":"shell","has_products":1,"lpg":"0","cng":"0","igo":"0","shop":"1","adblue":"0","light":"0"},{"ID":"30","zip":"5300","city":"ANDENNE","street":"AVENUE REINE ELISABETH 121","lat":"50.491114","lng":"5.090058","partner":"shell","has_products":1,"lpg":"0","cng":"0","igo":"0","shop":"0","adblue":"0","light":"1"},{"ID":"31","zip":"7070","city":"LE ROEULX","street":"ROUTE DE SOIGNIES 1","lat":"50.505547","lng":"4.111444","partner":"shell","has_products":1,"lpg":"0","cng":"0","igo":"0","shop":"1","adblue":"0","light":"0"},{"ID":"32","zip":"5032","city":"LES ISNES","street":"CHAUSSEE DE NAMUR 562","lat":"50.51835","lng":"4.76501","partner":"shell","has_products":1,"lpg":"0","cng":"0","igo":"0","shop":"0","adblue":"1","light":"1"},{"ID":"33","zip":"7180","city":"SENEFFE","street":"CHAUSSEE DE MONS 119","lat":"50.521898","lng":"4.251595","partner":"shell","has_products":1,"lpg":"0","cng":"0","igo":"0","shop":"0","adblue":"0","light":"1"},{"ID":"34","zip":"5380","city":"HINGEON","street":"GRAND-ROUTE 6","lat":"50.529055","lng":"5.008324","partner":"shell","has_products":1,"lpg":"1","cng":"0","igo":"1","shop":"1","adblue":"0","light":"0"},{"ID":"35","zip":"4500","city":"HUY","street":"RUE RENE DUBOIS 91","lat":"50.531484","lng":"5.218813","partner":"shell","has_products":1,"lpg":"0","cng":"0","igo":"0","shop":"1","adblue":"0","light":"1"},{"ID":"36","zip":"4500","city":"TIHANGE","street":"QUAI DARONA 12","lat":"50.533075","lng":"5.249298","partner":"shell","has_products":1,"lpg":"0","cng":"0","igo":"0","shop":"0","adblue":"0","light":"1"},{"ID":"37","zip":"5030","city":"GEMBLOUX","street":"CHAUSSEE DE CHARLEROI 140","lat":"50.55985","lng":"4.67984","partner":"shell","has_products":1,"lpg":"0","cng":"0","igo":"0","shop":"0","adblue":"0","light":"1"},{"ID":"38","zip":"4130","city":"TILFF","street":"AVENUE DES ARDENNES 8-20","lat":"50.564008","lng":"5.575825","partner":"shell","has_products":1,"lpg":"0","cng":"0","igo":"0","shop":"0","adblue":"0","light":"1"},{"ID":"39","zip":"4052","city":"BEAUFAYS","street":"VOIE DE LAIR PUR 124","lat":"50.568526","lng":"5.623757","partner":"shell","has_products":1,"lpg":"0","cng":"0","igo":"0","shop":"0","adblue":"0","light":"1"},{"ID":"40","zip":"4100","city":"BONCELLES","street":"ROUTE DU CONDROZ 18","lat":"50.569101","lng":"5.550969","partner":"shell","has_products":1,"lpg":"0","cng":"0","igo":"0","shop":"0","adblue":"0","light":"1"},{"ID":"41","zip":"7060","city":"Soignies","street":"BVD KENNEDY\/CH D\/L GUELENNE 1","lat":"50.584775","lng":"4.071245","partner":"shell","has_products":1,"lpg":"0","cng":"0","igo":"0","shop":"0","adblue":"0","light":"1"},{"ID":"42","zip":"1400","city":"NIVELLES","street":"CHAUSSEE DE NAMUR 52","lat":"50.597373","lng":"4.357052","partner":"shell","has_products":1,"lpg":"0","cng":"0","igo":"0","shop":"0","adblue":"0","light":"1"},{"ID":"43","zip":"4100","city":"SERAING","street":"RUE DE LA BOVERIE 365","lat":"50.599402","lng":"5.503706","partner":"shell","has_products":1,"lpg":"0","cng":"0","igo":"0","shop":"0","adblue":"0","light":"1"},{"ID":"44","zip":"5310","city":"AISCHE-EN-REFAIL","street":"AUTOROUTE E411 NAMUR-BXL S\/N","lat":"50.59998","lng":"4.79222","partner":"shell","has_products":1,"lpg":"1","cng":"0","igo":"0","shop":"1","adblue":"0","light":"0"},{"ID":"45","zip":"4400","city":"FLEMALLE-GRANDE","street":"RUE DU PASSAGE D EAU 2","lat":"50.603457","lng":"5.485063","partner":"shell","has_products":1,"lpg":"0","cng":"0","igo":"0","shop":"0","adblue":"0","light":"1"},{"ID":"46","zip":"7500","city":"TOURNAI","street":"CHAUSSEE DE BRUXELLES 47","lat":"50.604888","lng":"3.409459","partner":"shell","has_products":1,"lpg":"0","cng":"0","igo":"0","shop":"0","adblue":"0","light":"1"},{"ID":"47","zip":"4032","city":"CHENEE","street":"BLD DE BEAUFRAIPONT 1","lat":"50.608208","lng":"5.614182","partner":"shell","has_products":1,"lpg":"0","cng":"0","igo":"0","shop":"0","adblue":"0","light":"1"},{"ID":"48","zip":"7500","city":"TOURNAI","street":"CHAUSSEE DE RENAIX 49","lat":"50.613658","lng":"3.406283","partner":"shell","has_products":1,"lpg":"0","cng":"0","igo":"0","shop":"0","adblue":"1","light":"1"},{"ID":"49","zip":"4620","city":"FLERON","street":"RUE BUREAU 55","lat":"50.61389","lng":"5.693325","partner":"shell","has_products":1,"lpg":"0","cng":"0","igo":"0","shop":"0","adblue":"0","light":"1"},{"ID":"50","zip":"4620","city":"FLERON","street":"AVENUE DES MARTYRS 76","lat":"50.615901","lng":"5.672335","partner":"shell","has_products":1,"lpg":"0","cng":"0","igo":"0","shop":"0","adblue":"0","light":"1"},{"ID":"51","zip":"7090","city":"BRAINE-LE-COMTE","street":"CHAUSSEE DE BRUXELLES 73","lat":"50.62103","lng":"4.141543","partner":"shell","has_products":1,"lpg":"0","cng":"0","igo":"0","shop":"0","adblue":"0","light":"1"},{"ID":"52","zip":"7503","city":"FROYENNES","street":"RUE DE MAIRE 6","lat":"50.626109","lng":"3.367861","partner":"shell","has_products":1,"lpg":"0","cng":"0","igo":"0","shop":"0","adblue":"1","light":"1"},{"ID":"53","zip":"4030","city":"GRIVEGNEE","street":"RUE DE HERVE 461","lat":"50.628802","lng":"5.620925","partner":"shell","has_products":1,"lpg":"0","cng":"0","igo":"0","shop":"0","adblue":"0","light":"1"},{"ID":"54","zip":"4651","city":"BATTICE","street":"AV. MAJOR BOVY 2","lat":"50.645825","lng":"5.82471","partner":"shell","has_products":1,"lpg":"0","cng":"0","igo":"0","shop":"1","adblue":"0","light":"0"},{"ID":"55","zip":"4020","city":"LIEGE","street":"QUAI DU BARBOU 36","lat":"50.646731","lng":"5.596323","partner":"shell","has_products":1,"lpg":"0","cng":"0","igo":"0","shop":"0","adblue":"1","light":"1"},{"ID":"56","zip":"4651","city":"BATTICE","street":"AVENUE MAJOR BOVY 2","lat":"50.64696","lng":"5.824764","partner":"shell","has_products":1,"lpg":"0","cng":"0","igo":"0","shop":"1","adblue":"0","light":"0"},{"ID":"57","zip":"4837","city":"BAELEN","street":"RUE MITOYENNE 37","lat":"50.64795","lng":"6.00216","partner":"shell","has_products":1,"lpg":"0","cng":"0","igo":"0","shop":"0","adblue":"0","light":"0"},{"ID":"58","zip":"4837","city":"BAELEN","street":"RUE MITOYENNE 39","lat":"50.647992","lng":"6.00255","partner":"shell","has_products":1,"lpg":"0","cng":"0","igo":"0","shop":"0","adblue":"0","light":"1"},{"ID":"59","zip":"4632","city":"CEREXHE-HEUSEUX","street":"AUTOROUTE E 40 DIR LIEGE S\/N","lat":"50.654544","lng":"5.708862","partner":"shell","has_products":1,"lpg":"1","cng":"0","igo":"0","shop":"1","adblue":"0","light":"0"},{"ID":"60","zip":"4632","city":"CEREXHE-HEUSEUX","street":"AUTOROUTE E 40 DIR AIX S\/N","lat":"50.654707","lng":"5.711099","partner":"shell","has_products":1,"lpg":"1","cng":"0","igo":"0","shop":"1","adblue":"0","light":"0"},{"ID":"61","zip":"4000","city":"LIEGE","street":"RUE DES BAYARDS 90","lat":"50.655109","lng":"5.598625","partner":"shell","has_products":1,"lpg":"0","cng":"0","igo":"0","shop":"1","adblue":"0","light":"1"},{"ID":"62","zip":"4430","city":"ANS","street":"CHAUSSEE DU ROI ALBERT 7","lat":"50.664461","lng":"5.509381","partner":"shell","has_products":1,"lpg":"0","cng":"0","igo":"0","shop":"0","adblue":"0","light":"1"},{"ID":"63","zip":"4000","city":"ROCOURT","street":"CHAUSSEE DE TONGRES 338","lat":"50.671346","lng":"5.549208","partner":"shell","has_products":1,"lpg":"0","cng":"0","igo":"0","shop":"0","adblue":"0","light":"1"},{"ID":"64","zip":"4040","city":"Herstal","street":"R PIERRE JOSEPH ANTOINE 6","lat":"50.677897","lng":"5.640548","partner":"shell","has_products":1,"lpg":"0","cng":"0","igo":"0","shop":"1","adblue":"0","light":"1"},{"ID":"65","zip":"4040","city":"Herstal","street":"RUE BASSE CAMPAGNE 1","lat":"50.687588","lng":"5.646393","partner":"shell","has_products":1,"lpg":"0","cng":"0","igo":"0","shop":"0","adblue":"0","light":"1"},{"ID":"66","zip":"1420","city":"BRAINE L'ALLEUD","street":"CHAUSSEE D'ALSEMBERG 244","lat":"50.692146","lng":"4.369011","partner":"shell","has_products":1,"lpg":"0","cng":"0","igo":"0","shop":"1","adblue":"0","light":"1"},{"ID":"67","zip":"1300","city":"WAVRE","street":"CHAUSSEE DE NAMUR 253","lat":"50.692988","lng":"4.615268","partner":"shell","has_products":1,"lpg":"0","cng":"0","igo":"0","shop":"0","adblue":"1","light":"1"},{"ID":"68","zip":"4040","city":"Herstal","street":"RUE DE HERM\u00c9E 201","lat":"50.694284","lng":"5.626468","partner":"shell","has_products":1,"lpg":"0","cng":"0","igo":"0","shop":"0","adblue":"0","light":"0"},{"ID":"69","zip":"4300","city":"WAREMME","street":"CHAUSSEE ROMAINE 218\/220","lat":"50.696919","lng":"5.278374","partner":"shell","has_products":1,"lpg":"1","cng":"0","igo":"0","shop":"1","adblue":"0","light":"1"},{"ID":"70","zip":"7912","city":"SAINT SAUVEUR","street":"CHEE DE RENAIX 67","lat":"50.6999","lng":"3.58071","partner":"shell","has_products":1,"lpg":"0","cng":"0","igo":"0","shop":"0","adblue":"0","light":"1"},{"ID":"71","zip":"1410","city":"WATERLOO","street":"CHAUSSEE DE BRUXELLES 295","lat":"50.70998","lng":"4.401329","partner":"shell","has_products":1,"lpg":"0","cng":"0","igo":"0","shop":"0","adblue":"1","light":"1"},{"ID":"72","zip":"1301","city":"BIERGES","street":"BLV DE LEUROPE 3","lat":"50.711983","lng":"4.605182","partner":"shell","has_products":1,"lpg":"0","cng":"0","igo":"0","shop":"0","adblue":"0","light":"1"},{"ID":"73","zip":"1370","city":"Jodoigne","street":"CHAUSSEE DE HANNUT 10","lat":"50.721096","lng":"4.877328","partner":"shell","has_products":1,"lpg":"0","cng":"0","igo":"0","shop":"1","adblue":"0","light":"0"},{"ID":"74","zip":"1310","city":"LA HULPE","street":"CHAUSSEE DE BRUXELLES 46","lat":"50.732729","lng":"4.480024","partner":"shell","has_products":1,"lpg":"0","cng":"0","igo":"0","shop":"0","adblue":"0","light":"1"},{"ID":"75","zip":"7700","city":"MOUSCRON","street":"AVENUE DU PARC 20","lat":"50.73653","lng":"3.202509","partner":"shell","has_products":1,"lpg":"0","cng":"0","igo":"0","shop":"0","adblue":"0","light":"1"},{"ID":"76","zip":"1654","city":"HUIZINGEN","street":"TORLEYLAAN 115","lat":"50.739585","lng":"4.278987","partner":"shell","has_products":1,"lpg":"0","cng":"0","igo":"0","shop":"0","adblue":"1","light":"1"},{"ID":"77","zip":"9600","city":"RONSE","street":"CESAR SNOECKLAAN 51 GB","lat":"50.746116","lng":"3.585899","partner":"shell","has_products":1,"lpg":"0","cng":"0","igo":"0","shop":"0","adblue":"0","light":"1"},{"ID":"78","zip":"1370","city":"ZETRUD LUMAY","street":"CHAUSSEE DE TIRLEMONT 721","lat":"50.76828","lng":"4.907376","partner":"shell","has_products":1,"lpg":"0","cng":"0","igo":"0","shop":"1","adblue":"0","light":"0"},{"ID":"79","zip":"7880","city":"FLOBECQ","street":"D'HOPPE 37","lat":"50.77015","lng":"3.70285","partner":"shell","has_products":1,"lpg":"0","cng":"0","igo":"0","shop":"0","adblue":"0","light":"1"},{"ID":"80","zip":"8930","city":"KORTRIJK-REKKEM","street":"TRILOYSTRAAT 8","lat":"50.771573","lng":"3.198615","partner":"shell","has_products":1,"lpg":"0","cng":"0","igo":"1","shop":"0","adblue":"0","light":"0"},{"ID":"81","zip":"3700","city":"TONGEREN","street":"LUIKERSTEENWEG 1","lat":"50.775525","lng":"5.461064","partner":"shell","has_products":1,"lpg":"0","cng":"0","igo":"0","shop":"0","adblue":"0","light":"1"},{"ID":"82","zip":"3090","city":"OVERIJSE","street":"BRUSSELSESTEENWEG 419","lat":"50.786581","lng":"4.498472","partner":"shell","has_products":1,"lpg":"0","cng":"0","igo":"0","shop":"0","adblue":"1","light":"1"},{"ID":"83","zip":"1180","city":"UCCLE","street":"CHAUSSEE DE SAINT-JOB 500","lat":"50.792051","lng":"4.357973","partner":"shell","has_products":1,"lpg":"0","cng":"0","igo":"0","shop":"1","adblue":"0","light":"0"},{"ID":"84","zip":"3700","city":"TONGEREN","street":"BILZERSTEENWEG 228","lat":"50.792878","lng":"5.464227","partner":"shell","has_products":1,"lpg":"0","cng":"0","igo":"0","shop":"0","adblue":"0","light":"1"},{"ID":"85","zip":"1620","city":"DROGENBOS","street":"AVENUE PAUL GILSON 455","lat":"50.793718","lng":"4.306666","partner":"shell","has_products":1,"lpg":"0","cng":"0","igo":"0","shop":"0","adblue":"0","light":"1"},{"ID":"86","zip":"3300","city":"TIENEN","street":"GROOT OVERLAAR 44","lat":"50.797886","lng":"4.922562","partner":"shell","has_products":1,"lpg":"0","cng":"0","igo":"0","shop":"1","adblue":"0","light":"0"},{"ID":"87","zip":"8510","city":"MARKE","street":"AUTOSNLWEG E 17 RICHT GENT","lat":"50.799144","lng":"3.252051","partner":"shell","has_products":1,"lpg":"1","cng":"0","igo":"0","shop":"1","adblue":"0","light":"0"},{"ID":"88","zip":"8510","city":"MARKE","street":"AUTOSNLWEG 17 RICHT RIJSEL","lat":"50.80067","lng":"3.252781","partner":"shell","has_products":1,"lpg":"1","cng":"0","igo":"0","shop":"1","adblue":"0","light":"0"},{"ID":"89","zip":"1180","city":"UCCLE","street":"RUE GATTI DE GAMOND 88","lat":"50.803917","lng":"4.328156","partner":"shell","has_products":1,"lpg":"0","cng":"0","igo":"0","shop":"0","adblue":"0","light":"1"},{"ID":"90","zip":"1600","city":"SINT-PIETERS-LEEUW","street":"BERGENSESTEENWEG 65","lat":"50.804388","lng":"4.289026","partner":"shell","has_products":1,"lpg":"0","cng":"0","igo":"0","shop":"0","adblue":"0","light":"1"},{"ID":"91","zip":"1170","city":"WATERMAEL-BOITSFORT","street":"AVENUE DU MARTIN-PECHEUR 2","lat":"50.810521","lng":"4.399954","partner":"shell","has_products":1,"lpg":"0","cng":"0","igo":"0","shop":"0","adblue":"0","light":"1"},{"ID":"92","zip":"3300","city":"TIENEN","street":"ALBERTVEST 15","lat":"50.81317","lng":"4.93299","partner":"shell","has_products":1,"lpg":"0","cng":"0","igo":"0","shop":"0","adblue":"0","light":"1"},{"ID":"93","zip":"8978","city":"WATOU POPERINGE","street":"CALLICANNESWEG 18 18","lat":"50.81322","lng":"2.63808","partner":"shell","has_products":1,"lpg":"0","cng":"0","igo":"0","shop":"0","adblue":"0","light":"0"},{"ID":"94","zip":"8978","city":"WATOU-POPERINGE","street":"CALLICANNEWEG 20-21","lat":"50.813484","lng":"2.635037","partner":"shell","has_products":1,"lpg":"1","cng":"0","igo":"0","shop":"0","adblue":"0","light":"0"},{"ID":"95","zip":"3800","city":"SINT-TRUIDEN","street":"TIENSESTEENWEG 235","lat":"50.813915","lng":"5.16038","partner":"shell","has_products":1,"lpg":"0","cng":"0","igo":"0","shop":"0","adblue":"0","light":"1"},{"ID":"96","zip":"1160","city":"AUDERGHEM","street":"BLVD DU SOUVERAIN 240","lat":"50.814751","lng":"4.425572","partner":"shell","has_products":1,"lpg":"0","cng":"0","igo":"0","shop":"0","adblue":"0","light":"1"},{"ID":"97","zip":"3800","city":"SINT-TRUIDEN","street":"NIEUWPOORT 17","lat":"50.817581","lng":"5.191604","partner":"shell","has_products":1,"lpg":"0","cng":"0","igo":"0","shop":"0","adblue":"0","light":"0"},{"ID":"98","zip":"1070","city":"ANDERLECHT","street":"BOULEVARD INDUSTRIEL 122","lat":"50.817728","lng":"4.308422","partner":"shell","has_products":1,"lpg":"0","cng":"0","igo":"0","shop":"0","adblue":"0","light":"1"},{"ID":"99","zip":"1050","city":"IXELLES","street":"CHAUSSEE DE BOONDAEL 2","lat":"50.827538","lng":"4.374132","partner":"shell","has_products":1,"lpg":"0","cng":"0","igo":"0","shop":"1","adblue":"0","light":"0"},{"ID":"100","zip":"1070","city":"ANDERLECHT","street":"CHAUSSEE DE MONS 877","lat":"50.828071","lng":"4.301977","partner":"shell","has_products":1,"lpg":"0","cng":"0","igo":"0","shop":"0","adblue":"0","light":"1"},{"ID":"101","zip":"1150","city":"WOLUWE-SAINT-PIERRE","street":"AV JULES DUJARDIN 1 BTE 5","lat":"50.831218","lng":"4.452107","partner":"shell","has_products":1,"lpg":"0","cng":"0","igo":"0","shop":"1","adblue":"0","light":"0"},{"ID":"102","zip":"1070","city":"ANDERLECHT","street":"RUE DES VETERINAIRES 103","lat":"50.832554","lng":"4.330569","partner":"shell","has_products":1,"lpg":"0","cng":"0","igo":"0","shop":"0","adblue":"0","light":"1"},{"ID":"103","zip":"3080","city":"TERVUREN","street":"LEUVENSESTEENWEG 98 A","lat":"50.836027","lng":"4.535768","partner":"shell","has_products":1,"lpg":"0","cng":"0","igo":"0","shop":"0","adblue":"0","light":"1"},{"ID":"104","zip":"9400","city":"NINOVE","street":"ALBERTLAAN 100","lat":"50.837896","lng":"4.009062","partner":"shell","has_products":1,"lpg":"0","cng":"0","igo":"0","shop":"0","adblue":"0","light":"1"},{"ID":"105","zip":"1703","city":"SCHEPDAAL","street":"NINOOFSESTEENWEG 872","lat":"50.838869","lng":"4.205117","partner":"shell","has_products":1,"lpg":"0","cng":"0","igo":"0","shop":"1","adblue":"0","light":"0"},{"ID":"106","zip":"1040","city":"BRUXELLES","street":"AVENUE D AUDERGHEM 15","lat":"50.841139","lng":"4.384374","partner":"shell","has_products":1,"lpg":"0","cng":"0","igo":"0","shop":"0","adblue":"0","light":"1"},{"ID":"107","zip":"8540","city":"DEERLIJK","street":"VICHTESTEENWEG 135","lat":"50.846643","lng":"3.378718","partner":"shell","has_products":1,"lpg":"1","cng":"0","igo":"0","shop":"1","adblue":"1","light":"0"},{"ID":"108","zip":"1070","city":"ANDERLECHT","street":"NINOOFSESTEENWEG 715","lat":"50.84668","lng":"4.293479","partner":"shell","has_products":1,"lpg":"0","cng":"0","igo":"0","shop":"0","adblue":"0","light":"1"},{"ID":"109","zip":"1950","city":"KRAAINEM","street":"WEZEMBEEKLAAN 114","lat":"50.84845","lng":"4.471646","partner":"shell","has_products":1,"lpg":"0","cng":"0","igo":"0","shop":"0","adblue":"0","light":"1"},{"ID":"110","zip":"1200","city":"WOLUWE-SAINT-LAMBERT","street":"CCHE DE ROODEBEEK 169 BP 10","lat":"50.848529","lng":"4.42945","partner":"shell","has_products":1,"lpg":"0","cng":"0","igo":"0","shop":"0","adblue":"0","light":"1"},{"ID":"111","zip":"1030","city":"SCHAERBEEK","street":"CHAUSSEE DE LOUVAIN 568","lat":"50.854398","lng":"4.396392","partner":"shell","has_products":1,"lpg":"0","cng":"0","igo":"0","shop":"0","adblue":"0","light":"1"},{"ID":"112","zip":"1030","city":"SCHAERBEEK","street":"CHAUSSEE DE LOUVAIN 622","lat":"50.855398","lng":"4.400708","partner":"shell","has_products":1,"lpg":"0","cng":"0","igo":"0","shop":"0","adblue":"0","light":"1"},{"ID":"113","zip":"8900","city":"Ieper","street":"ALBERT DEHEMLAAN 2A","lat":"50.860107","lng":"2.890618","partner":"shell","has_products":1,"lpg":"0","cng":"0","igo":"0","shop":"0","adblue":"0","light":"1"},{"ID":"114","zip":"3360","city":"KORBEEK-LO","street":"VLINDERLAAN 1","lat":"50.865418","lng":"4.747248","partner":"shell","has_products":1,"lpg":"0","cng":"0","igo":"0","shop":"0","adblue":"1","light":"1"},{"ID":"115","zip":"1140","city":"EVERE","street":"AVENUE DES OLYMPIADES 12","lat":"50.868278","lng":"4.403947","partner":"shell","has_products":1,"lpg":"0","cng":"0","igo":"0","shop":"0","adblue":"0","light":"1"},{"ID":"116","zip":"1082","city":"BERCHEM-SAINTE-AGATHE","street":"AVENUE CHARLES-QUINT 500","lat":"50.871111","lng":"4.293785","partner":"shell","has_products":1,"lpg":"0","cng":"0","igo":"0","shop":"0","adblue":"0","light":"1"},{"ID":"117","zip":"1090","city":"JETTE","street":"BLVD DE SMET DE NAEYER 102","lat":"50.87343","lng":"4.328889","partner":"shell","has_products":1,"lpg":"0","cng":"0","igo":"0","shop":"0","adblue":"0","light":"1"},{"ID":"118","zip":"1030","city":"SCHAERBEEK","street":"BOULEVARD LAMBERMONT 18-20","lat":"50.87519","lng":"4.375172","partner":"shell","has_products":1,"lpg":"0","cng":"0","igo":"0","shop":"0","adblue":"0","light":"1"},{"ID":"119","zip":"1740","city":"TERNAT","street":"ASSESTEENWEG 119","lat":"50.876671","lng":"4.164405","partner":"shell","has_products":1,"lpg":"0","cng":"0","igo":"0","shop":"0","adblue":"0","light":"1"},{"ID":"120","zip":"9620","city":"ZOTTEGEM","street":"BUKE 52","lat":"50.878463","lng":"3.818417","partner":"shell","has_products":1,"lpg":"1","cng":"0","igo":"0","shop":"1","adblue":"1","light":"0"},{"ID":"121","zip":"3070","city":"KORTENBERG","street":"LEUVENSESTEENWEG 163","lat":"50.884673","lng":"4.529686","partner":"shell","has_products":1,"lpg":"0","cng":"0","igo":"0","shop":"0","adblue":"1","light":"1"},{"ID":"122","zip":"1020","city":"LAEKEN","street":"RUE DU CLOITRE 87","lat":"50.888446","lng":"4.339567","partner":"shell","has_products":1,"lpg":"0","cng":"0","igo":"0","shop":"1","adblue":"0","light":"0"},{"ID":"123","zip":"1930","city":"ZAVENTEM","street":"VILVOORDELAAN 137","lat":"50.892672","lng":"4.471236","partner":"shell","has_products":1,"lpg":"0","cng":"0","igo":"0","shop":"0","adblue":"1","light":"1"},{"ID":"124","zip":"9473","city":"WELLE","street":"STEENWEG OP AALST 137","lat":"50.898705","lng":"4.055854","partner":"shell","has_products":1,"lpg":"0","cng":"0","igo":"0","shop":"1","adblue":"0","light":"0"},{"ID":"125","zip":"8793","city":"Sint-Eloois-Vijve","street":"ROTERIJSTRAAT 239","lat":"50.898734","lng":"3.403647","partner":"shell","has_products":1,"lpg":"0","cng":"0","igo":"0","shop":"0","adblue":"0","light":"1"},{"ID":"126","zip":"1853","city":"STROMBEEK-BEVER","street":"ROMEINSE STEENWEG 440","lat":"50.901439","lng":"4.354769","partner":"shell","has_products":1,"lpg":"0","cng":"0","igo":"0","shop":"0","adblue":"0","light":"1"},{"ID":"127","zip":"1853","city":"STROMBEEK-BEVER","street":"ROMEINSE STEENWEG 572","lat":"50.902314","lng":"4.33923","partner":"shell","has_products":1,"lpg":"0","cng":"0","igo":"0","shop":"0","adblue":"1","light":"1"},{"ID":"128","zip":"1780","city":"WEMMEL","street":"BRUSSELSESTEENWEG 178","lat":"50.90315","lng":"4.30624","partner":"shell","has_products":1,"lpg":"0","cng":"0","igo":"0","shop":"0","adblue":"0","light":"1"},{"ID":"129","zip":"1853","city":"STROMBEEK-BEVER","street":"ACACIALAAN 51","lat":"50.904413","lng":"4.349052","partner":"shell","has_products":1,"lpg":"0","cng":"0","igo":"0","shop":"1","adblue":"0","light":"0"},{"ID":"130","zip":"3590","city":"DIEPENBEEK","street":"GRENDELBAAN 5","lat":"50.906128","lng":"5.429691","partner":"shell","has_products":1,"lpg":"1","cng":"0","igo":"0","shop":"1","adblue":"0","light":"0"},{"ID":"131","zip":"1931","city":"BRUCARGO","street":"ESSO SITE BRUCARGO","lat":"50.9073","lng":"4.46092","partner":"shell","has_products":1,"lpg":"0","cng":"0","igo":"0","shop":"0","adblue":"0","light":"0"},{"ID":"132","zip":"9750","city":"HUISE","street":"GENTSESTEENWEG 50","lat":"50.908443","lng":"3.61713","partner":"shell","has_products":1,"lpg":"0","cng":"0","igo":"0","shop":"1","adblue":"0","light":"0"},{"ID":"133","zip":"9300","city":"AALST","street":"GERAARDBERGSESTRAAT 209","lat":"50.9266","lng":"4.03538","partner":"shell","has_products":1,"lpg":"0","cng":"0","igo":"0","shop":"0","adblue":"0","light":"1"},{"ID":"134","zip":"3690","city":"ZUTENDAAL","street":"DAALSTRAAT 61","lat":"50.928814","lng":"5.56452","partner":"shell","has_products":1,"lpg":"1","cng":"0","igo":"0","shop":"1","adblue":"0","light":"0"},{"ID":"135","zip":"3500","city":"HASSELT","street":"HERKENRODESINGEL 2","lat":"50.937965","lng":"5.315673","partner":"shell","has_products":1,"lpg":"0","cng":"0","igo":"0","shop":"0","adblue":"0","light":"1"},{"ID":"136","zip":"3511","city":"KURINGEN","street":"KURINGERSTEENWEG 351","lat":"50.939638","lng":"5.303877","partner":"shell","has_products":1,"lpg":"1","cng":"0","igo":"0","shop":"1","adblue":"0","light":"0"},{"ID":"137","zip":"3110","city":"ROTSELAAR","street":"WINGEPARK 33","lat":"50.940134","lng":"4.747156","partner":"shell","has_products":1,"lpg":"0","cng":"0","igo":"0","shop":"0","adblue":"0","light":"0"},{"ID":"138","zip":"9300","city":"AALST","street":"GENTSESTEENWEG 309","lat":"50.941567","lng":"4.002767","partner":"shell","has_products":1,"lpg":"0","cng":"0","igo":"0","shop":"0","adblue":"0","light":"1"},{"ID":"139","zip":"3630","city":"MAASMECHELEN OPGRIMBIE","street":"RIJKSWEG 549","lat":"50.944913","lng":"5.693107","partner":"shell","has_products":1,"lpg":"1","cng":"0","igo":"1","shop":"1","adblue":"0","light":"0"},{"ID":"140","zip":"3540","city":"Herk-De-Stad","street":"GROTE BAAN 20","lat":"50.945368","lng":"5.138391","partner":"shell","has_products":1,"lpg":"0","cng":"0","igo":"0","shop":"0","adblue":"0","light":"0"},{"ID":"141","zip":"1860","city":"MEISE","street":"RONDPLEIN 18","lat":"50.948463","lng":"4.315468","partner":"shell","has_products":1,"lpg":"0","cng":"0","igo":"0","shop":"0","adblue":"0","light":"1"},{"ID":"142","zip":"8800","city":"Roeselare","street":"BRUGSESTEENWEG 340","lat":"50.96592","lng":"3.120761","partner":"shell","has_products":1,"lpg":"0","cng":"0","igo":"0","shop":"0","adblue":"0","light":"1"},{"ID":"143","zip":"1980","city":"EPPEGEM","street":"BRUSSELSESTEENWEG 197","lat":"50.968087","lng":"4.455761","partner":"shell","has_products":1,"lpg":"0","cng":"0","igo":"1","shop":"1","adblue":"0","light":"0"},{"ID":"144","zip":"9230","city":"WESTREM","street":"AUTOSNELWEG E40 -> BRUSSEL","lat":"50.969978","lng":"3.840423","partner":"shell","has_products":1,"lpg":"1","cng":"0","igo":"0","shop":"1","adblue":"0","light":"0"},{"ID":"145","zip":"9230","city":"WETTEREN","street":"AUTOSNLWEG E40 -> OOSTENDE","lat":"50.970436","lng":"3.845327","partner":"shell","has_products":1,"lpg":"1","cng":"0","igo":"0","shop":"1","adblue":"0","light":"0"},{"ID":"146","zip":"3520","city":"ZONHOVEN","street":"HEUVENEINDEWEG (N74) 80","lat":"50.97044","lng":"5.36009","partner":"shell","has_products":1,"lpg":"0","cng":"0","igo":"0","shop":"0","adblue":"1","light":"1"},{"ID":"147","zip":"3290","city":"Webbekom","street":"LEUVENSESTEENWEG 110","lat":"50.974781","lng":"5.041135","partner":"shell","has_products":1,"lpg":"0","cng":"0","igo":"0","shop":"0","adblue":"0","light":"1"},{"ID":"148","zip":"3202","city":"RILLAAR","street":"DIESTSESTEENWEG 191","lat":"50.976214","lng":"4.878345","partner":"shell","has_products":1,"lpg":"0","cng":"0","igo":"0","shop":"1","adblue":"0","light":"1"},{"ID":"149","zip":"3600","city":"WINTERSLAG GENK","street":"VENNESTRAAT 162","lat":"50.977","lng":"5.489983","partner":"shell","has_products":1,"lpg":"0","cng":"0","igo":"0","shop":"1","adblue":"0","light":"0"},{"ID":"150","zip":"3630","city":"MAASMECHELEN","street":"OUDE BAAN 168","lat":"50.981974","lng":"5.692482","partner":"shell","has_products":1,"lpg":"0","cng":"0","igo":"0","shop":"1","adblue":"0","light":"0"},{"ID":"151","zip":"9230","city":"WETTEREN","street":"ZUIDLAAN 296","lat":"50.988949","lng":"3.848811","partner":"shell","has_products":1,"lpg":"0","cng":"0","igo":"0","shop":"0","adblue":"1","light":"0"},{"ID":"152","zip":"9800","city":"DEINZE","street":"KOUTER 9","lat":"50.991611","lng":"3.513181","partner":"shell","has_products":1,"lpg":"0","cng":"0","igo":"0","shop":"0","adblue":"0","light":"1"},{"ID":"153","zip":"2800","city":"MECHELEN","street":"ZEMSTBAAN 248","lat":"50.992932","lng":"4.473369","partner":"shell","has_products":1,"lpg":"0","cng":"0","igo":"0","shop":"0","adblue":"0","light":"1"},{"ID":"154","zip":"3290","city":"DIEST-SCHAFFEN","street":"BLANKLAERSTRAAT 5","lat":"51.007497","lng":"5.112214","partner":"shell","has_products":1,"lpg":"0","cng":"0","igo":"0","shop":"0","adblue":"0","light":"1"},{"ID":"155","zip":"9051","city":"SINT-DENIJS-WESTREM","street":"KORTRIJKSESTEENWEG 1141","lat":"51.017337","lng":"3.668384","partner":"shell","has_products":1,"lpg":"0","cng":"0","igo":"0","shop":"0","adblue":"1","light":"1"},{"ID":"156","zip":"9000","city":"GENT","street":"KORTRIJKSESTEENWEG 831","lat":"51.025928","lng":"3.711259","partner":"shell","has_products":1,"lpg":"0","cng":"0","igo":"0","shop":"0","adblue":"0","light":"1"},{"ID":"157","zip":"9050","city":"GENTBRUGGE","street":"BRUSSELSESTEENWEG 735","lat":"51.028642","lng":"3.767794","partner":"shell","has_products":1,"lpg":"0","cng":"0","igo":"0","shop":"0","adblue":"0","light":"1"},{"ID":"158","zip":"9031","city":"DRONGEN","street":"DEINSESTEENWEG 85 B","lat":"51.038113","lng":"3.632175","partner":"shell","has_products":1,"lpg":"0","cng":"0","igo":"0","shop":"0","adblue":"0","light":"1"},{"ID":"159","zip":"9200","city":"GREMBERGEN","street":"MARTELARENLAAN 28","lat":"51.039032","lng":"4.102553","partner":"shell","has_products":1,"lpg":"0","cng":"0","igo":"0","shop":"0","adblue":"0","light":"1"},{"ID":"160","zip":"2800","city":"MECHELEN","street":"ANTWERPSESTEENWEG 2","lat":"51.040262","lng":"4.472267","partner":"shell","has_products":1,"lpg":"0","cng":"0","igo":"0","shop":"0","adblue":"1","light":"1"},{"ID":"161","zip":"2801","city":"HEFFEN","street":"GENTSESTEENWEG 195","lat":"51.043783","lng":"4.425941","partner":"shell","has_products":1,"lpg":"0","cng":"0","igo":"0","shop":"0","adblue":"0","light":"1"},{"ID":"162","zip":"3980","city":"TESSENDERLO","street":"IND ZONE RAVENSHOUT ZONE 3 3323","lat":"51.067788","lng":"5.087622","partner":"shell","has_products":1,"lpg":"0","cng":"0","igo":"0","shop":"0","adblue":"0","light":"0"},{"ID":"163","zip":"9000","city":"GENT","street":"PALINGHUIZEN 149","lat":"51.068587","lng":"3.696937","partner":"shell","has_products":1,"lpg":"0","cng":"0","igo":"0","shop":"1","adblue":"0","light":"0"},{"ID":"164","zip":"9160","city":"LOKEREN","street":"DIJKSTRAAT 7","lat":"51.09244","lng":"4.025413","partner":"shell","has_products":1,"lpg":"0","cng":"0","igo":"1","shop":"1","adblue":"0","light":"0"},{"ID":"165","zip":"3680","city":"Maaseik","street":"MAASTRICHTERSTEENWEG 27","lat":"51.094852","lng":"5.779031","partner":"shell","has_products":1,"lpg":"1","cng":"0","igo":"1","shop":"1","adblue":"0","light":"0"},{"ID":"166","zip":"3680","city":"Maaseik","street":"BURG PHILIPSLAAN 80","lat":"51.097365","lng":"5.78871","partner":"shell","has_products":1,"lpg":"0","cng":"0","igo":"0","shop":"0","adblue":"0","light":"1"},{"ID":"167","zip":"3971","city":"HEPPEN","street":"LEOPOLDSBURGSESTW 120","lat":"51.113632","lng":"5.245434","partner":"shell","has_products":1,"lpg":"0","cng":"0","igo":"0","shop":"0","adblue":"0","light":"1"},{"ID":"168","zip":"9042","city":"GENT","street":"JOHN KENNEDYLAAN 30E","lat":"51.118293","lng":"3.773584","partner":"shell","has_products":1,"lpg":"0","cng":"0","igo":"0","shop":"0","adblue":"0","light":"0"},{"ID":"169","zip":"2200","city":"MORKHOVEN","street":"MOLENSTRAAT 69","lat":"51.119566","lng":"4.818726","partner":"shell","has_products":1,"lpg":"0","cng":"0","igo":"0","shop":"1","adblue":"0","light":"0"},{"ID":"170","zip":"2500","city":"LIER","street":"LINTSESTEENWEG 4","lat":"51.125374","lng":"4.550412","partner":"shell","has_products":1,"lpg":"0","cng":"0","igo":"0","shop":"0","adblue":"0","light":"1"},{"ID":"171","zip":"8730","city":"BEERNEM","street":"WINGENSESTEENWEG 2","lat":"51.126682","lng":"3.327929","partner":"shell","has_products":1,"lpg":"0","cng":"0","igo":"0","shop":"1","adblue":"0","light":"0"},{"ID":"172","zip":"3941","city":"HECHTEL","street":"PEERDERBAAN 161","lat":"51.12747","lng":"5.39033","partner":"shell","has_products":1,"lpg":"1","cng":"0","igo":"1","shop":"1","adblue":"1","light":"1"},{"ID":"173","zip":"9140","city":"ELVERSELE","street":"NIEUWE STEENWEG 129","lat":"51.128784","lng":"4.144815","partner":"shell","has_products":1,"lpg":"0","cng":"0","igo":"0","shop":"0","adblue":"0","light":"1"},{"ID":"174","zip":"9140","city":"TEMSE","street":"HOOGKAMERSTRAAT 292","lat":"51.134677","lng":"4.187577","partner":"shell","has_products":1,"lpg":"1","cng":"0","igo":"0","shop":"1","adblue":"1","light":"1"},{"ID":"175","zip":"3640","city":"KINROOI","street":"BREEERSTEENWEG 75","lat":"51.143594","lng":"5.789098","partner":"shell","has_products":1,"lpg":"1","cng":"0","igo":"0","shop":"0","adblue":"0","light":"0"},{"ID":"176","zip":"3960","city":"BREE","street":"SPORTLAAN Z\/N","lat":"51.146412","lng":"5.595461","partner":"shell","has_products":1,"lpg":"0","cng":"0","igo":"0","shop":"0","adblue":"0","light":"1"},{"ID":"177","zip":"2440","city":"GEEL","street":"ANTWERPSEWEG 68","lat":"51.147354","lng":"4.961357","partner":"shell","has_products":1,"lpg":"0","cng":"0","igo":"0","shop":"0","adblue":"0","light":"0"},{"ID":"178","zip":"2440","city":"GEEL","street":"PAS 333","lat":"51.153466","lng":"4.976266","partner":"shell","has_products":1,"lpg":"0","cng":"0","igo":"0","shop":"0","adblue":"0","light":"1"},{"ID":"179","zip":"9100","city":"SINT-NIKLAAS","street":"PRINS BOUDEWIJNLAAN 39","lat":"51.160276","lng":"4.163989","partner":"shell","has_products":1,"lpg":"1","cng":"0","igo":"0","shop":"1","adblue":"0","light":"1"},{"ID":"180","zip":"2610","city":"WILRIJK","street":"BOOMSESTEENWEG 44","lat":"51.180345","lng":"4.38901","partner":"shell","has_products":1,"lpg":"0","cng":"0","igo":"0","shop":"0","adblue":"1","light":"1"},{"ID":"181","zip":"2600","city":"BERCHEM","street":"GROTE STEENWEG 464 PARK GB","lat":"51.185336","lng":"4.431863","partner":"shell","has_products":1,"lpg":"0","cng":"0","igo":"0","shop":"0","adblue":"0","light":"1"},{"ID":"182","zip":"8200","city":"SINT-MICHIELS","street":"KONINGIN ASTRIDLAAN 1","lat":"51.188319","lng":"3.209458","partner":"shell","has_products":1,"lpg":"0","cng":"0","igo":"0","shop":"0","adblue":"0","light":"1"},{"ID":"183","zip":"2240","city":"ZANDHOVEN","street":"LIERSEBAAN 196","lat":"51.191878","lng":"4.637849","partner":"shell","has_products":1,"lpg":"0","cng":"0","igo":"0","shop":"0","adblue":"0","light":"1"},{"ID":"184","zip":"2150","city":"BORSBEEK","street":"DE ROBIANOSTRAAT 155","lat":"51.19445","lng":"4.475725","partner":"shell","has_products":1,"lpg":"0","cng":"0","igo":"0","shop":"0","adblue":"1","light":"1"},{"ID":"185","zip":"8200","city":"Sint-Andries","street":"TORHOUTSESTEENWEG 212","lat":"51.196044","lng":"3.199881","partner":"shell","has_products":1,"lpg":"0","cng":"0","igo":"0","shop":"1","adblue":"0","light":"1"},{"ID":"186","zip":"2400","city":"MOL","street":"TURNHOUTSEBAAN 131","lat":"51.199439","lng":"5.115182","partner":"shell","has_products":1,"lpg":"0","cng":"0","igo":"0","shop":"0","adblue":"0","light":"1"},{"ID":"187","zip":"8400","city":"OOSTENDE","street":"NIEUWPOORTSESTEENWEG 889","lat":"51.205316","lng":"2.871337","partner":"shell","has_products":1,"lpg":"0","cng":"0","igo":"0","shop":"1","adblue":"0","light":"0"},{"ID":"188","zip":"8310","city":"SINT-KRUIS","street":"MAALSESTEENWEG 325","lat":"51.206977","lng":"3.269271","partner":"shell","has_products":1,"lpg":"0","cng":"0","igo":"0","shop":"0","adblue":"0","light":"1"},{"ID":"189","zip":"2070","city":"BURCHT","street":"ZWIJNDRECHTSESTR 165","lat":"51.207146","lng":"4.339185","partner":"shell","has_products":1,"lpg":"0","cng":"0","igo":"0","shop":"0","adblue":"0","light":"1"},{"ID":"190","zip":"8200","city":"Sint-Andries","street":"JAN BREYDELLAAN 105","lat":"51.211129","lng":"3.205969","partner":"shell","has_products":1,"lpg":"0","cng":"0","igo":"0","shop":"1","adblue":"0","light":"0"},{"ID":"191","zip":"2970","city":"SCHILDE","street":"TURNHOUTSEBAAN 132","lat":"51.236519","lng":"4.571825","partner":"shell","has_products":1,"lpg":"0","cng":"0","igo":"0","shop":"0","adblue":"0","light":"1"},{"ID":"192","zip":"9130","city":"KALLO","street":"HAZOPWEG Z\/N","lat":"51.251318","lng":"4.220383","partner":"shell","has_products":1,"lpg":"0","cng":"0","igo":"0","shop":"0","adblue":"0","light":"0"},{"ID":"193","zip":"2275","city":"WECHELDERZANDE","street":"GEBR DE WINTERSTRAAT 119","lat":"51.257828","lng":"4.800976","partner":"shell","has_products":1,"lpg":"0","cng":"0","igo":"0","shop":"0","adblue":"0","light":"0"},{"ID":"194","zip":"2900","city":"SCHOTEN","street":"BREDABAAN 967","lat":"51.258336","lng":"4.463328","partner":"shell","has_products":1,"lpg":"0","cng":"0","igo":"0","shop":"0","adblue":"0","light":"1"},{"ID":"195","zip":"2030","city":"Antwerpen","street":"NOORDERLAAN 502","lat":"51.262463","lng":"4.419031","partner":"shell","has_products":1,"lpg":"0","cng":"0","igo":"0","shop":"0","adblue":"0","light":"1"},{"ID":"196","zip":"2170","city":"MERKSEM","street":"BREDABAAN 966","lat":"51.264393","lng":"4.462873","partner":"shell","has_products":1,"lpg":"0","cng":"0","igo":"0","shop":"0","adblue":"0","light":"1"},{"ID":"197","zip":"2030","city":"Antwerpen","street":"ROMEYNSWEEL 1","lat":"51.26725","lng":"4.39567","partner":"shell","has_products":1,"lpg":"0","cng":"0","igo":"0","shop":"0","adblue":"0","light":"0"},{"ID":"198","zip":"2340","city":"VLIMMEREN","street":"ANTWERPSEWEG 250","lat":"51.301897","lng":"4.77984","partner":"shell","has_products":1,"lpg":"0","cng":"0","igo":"0","shop":"1","adblue":"0","light":"1"},{"ID":"199","zip":"2300","city":"TURNHOUT","street":"PARKLAAN 80-82","lat":"51.312663","lng":"4.952295","partner":"shell","has_products":1,"lpg":"0","cng":"0","igo":"0","shop":"0","adblue":"0","light":"1"},{"ID":"200","zip":"2950","city":"KAPELLEN","street":"KAPELSESTRAAT 160","lat":"51.328507","lng":"4.416502","partner":"shell","has_products":1,"lpg":"0","cng":"0","igo":"0","shop":"1","adblue":"0","light":"1"},{"ID":"201","zip":"2321","city":"MEER","street":"AMSTERDAMSESTRAAT 2-4","lat":"51.47995","lng":"4.730006","partner":"shell","has_products":1,"lpg":"0","cng":"0","igo":"0","shop":"0","adblue":"0","light":"0"},{"ID":"202","zip":"1060","city":"BRUXELLES","street":"Chauss\u00e9e de Waterloo, 378","lat":"50.801525","lng":"4.37315555555555","partner":"lukoil","has_products":1,"lpg":"1","cng":"0","igo":"0","shop":"1","adblue":"0","light":"1"},{"ID":"203","zip":"1200","city":"WOLUWE ST. LAMBERT","street":"Rue Montagne des Cerisiers, 7","lat":"50.8445472222222","lng":"4.41951388888888","partner":"lukoil","has_products":1,"lpg":"0","cng":"0","igo":"0","shop":"1","adblue":"0","light":"1"},{"ID":"204","zip":"2610","city":"WILRIJK","street":"Boomsesteenweg, 54","lat":"51.1807277777777","lng":"4.38923611111111","partner":"lukoil","has_products":1,"lpg":"0","cng":"0","igo":"0","shop":"1","adblue":"0","light":"1"},{"ID":"205","zip":"1190","city":"FOREST","street":"Chauss\u00e9e de Neerstalle, 208","lat":"50.8040472222222","lng":"4.31422777777777","partner":"lukoil","has_products":1,"lpg":"0","cng":"0","igo":"0","shop":"1","adblue":"0","light":"1"},{"ID":"206","zip":"9000","city":"GENT","street":"Vlaamsekaai, 106","lat":"51.0455666666666","lng":"3.74383333333333","partner":"lukoil","has_products":1,"lpg":"0","cng":"0","igo":"0","shop":"1","adblue":"0","light":"1"},{"ID":"207","zip":"8200","city":"ST. ANDRIES\/BRUGGE","street":"Gistelsteenweg, 168","lat":"51.2013972222222","lng":"3.20078333333333","partner":"lukoil","has_products":1,"lpg":"0","cng":"0","igo":"0","shop":"1","adblue":"0","light":"1"},{"ID":"208","zip":"1420","city":"BRAINE L'ALLEUD","street":"Chauss\u00e9e de Tubize, 58","lat":"50.6989","lng":"4.35976666666666","partner":"lukoil","has_products":1,"lpg":"1","cng":"0","igo":"0","shop":"1","adblue":"1","light":"1"},{"ID":"209","zip":"3293","city":"KAGGEVINNE","street":"Steenweg op Leuven, 311","lat":"50.9740194444444","lng":"5.03980555555555","partner":"lukoil","has_products":1,"lpg":"1","cng":"0","igo":"0","shop":"1","adblue":"0","light":"1"},{"ID":"210","zip":"6041","city":"GOSSELIES","street":"Place des Combattants, 19","lat":"50.4644861111111","lng":"4.4322","partner":"lukoil","has_products":1,"lpg":"0","cng":"0","igo":"0","shop":"1","adblue":"0","light":"1"},{"ID":"211","zip":"9040","city":"ST. AMANDSBERG","street":"Antwerpsesteenweg, 758","lat":"51.0671805555555","lng":"3.75958055555555","partner":"lukoil","has_products":1,"lpg":"0","cng":"0","igo":"0","shop":"1","adblue":"0","light":"1"},{"ID":"212","zip":"5004","city":"BOUGE","street":"Chauss\u00e9e de Louvain, 171","lat":"50.4752277777777","lng":"4.87425277777777","partner":"lukoil","has_products":1,"lpg":"0","cng":"0","igo":"0","shop":"1","adblue":"0","light":"1"},{"ID":"213","zip":"1140","city":"BRUXELLES","street":"Chauss\u00e9e de Louvain, 1024","lat":"50.8604805555555","lng":"4.41981666666666","partner":"lukoil","has_products":1,"lpg":"0","cng":"0","igo":"0","shop":"1","adblue":"0","light":"1"},{"ID":"214","zip":"3500","city":"HASSELT","street":"Luikersteenweg, 119","lat":"50.9230416666666","lng":"5.34026944444444","partner":"lukoil","has_products":1,"lpg":"0","cng":"0","igo":"0","shop":"1","adblue":"0","light":"1"},{"ID":"215","zip":"5001","city":"BELGRADE\/NAMUR","street":"Avenue J. Abras, 77","lat":"50.4724138888888","lng":"4.824575","partner":"lukoil","has_products":1,"lpg":"0","cng":"0","igo":"0","shop":"1","adblue":"0","light":"1"},{"ID":"216","zip":"1380","city":"OHAIN","street":"Route de Genval","lat":"50.708775","lng":"4.47799166666666","partner":"lukoil","has_products":1,"lpg":"0","cng":"0","igo":"0","shop":"1","adblue":"0","light":"1"},{"ID":"217","zip":"9600","city":"RONSE","street":"Leuzesteenweg, 1","lat":"50.7431472222222","lng":"3.58701944444444","partner":"lukoil","has_products":1,"lpg":"0","cng":"0","igo":"0","shop":"1","adblue":"0","light":"1"},{"ID":"218","zip":"1180","city":"BRUXELLES","street":"Dieweg\/Avenue Wolvendael 130","lat":"50.7962","lng":"4.34714722222222","partner":"lukoil","has_products":1,"lpg":"0","cng":"0","igo":"0","shop":"1","adblue":"0","light":"1"},{"ID":"219","zip":"2030","city":"EKEREN","street":"Ekersestweg 4\/Hoek F. Verbieststr.","lat":"51.2713051","lng":"4.4174166","partner":"lukoil","has_products":1,"lpg":"0","cng":"0","igo":"0","shop":"1","adblue":"1","light":"1"},{"ID":"220","zip":"1600","city":"ST.-PIETERS LEEUW","street":"Steenweg op Bergen, 368","lat":"50.7876083333333","lng":"4.278275","partner":"lukoil","has_products":1,"lpg":"0","cng":"0","igo":"0","shop":"1","adblue":"0","light":"1"},{"ID":"221","zip":"1853","city":"STROMBEEK-BEVER","street":"Sint Annalaan, 275","lat":"50.9043916666666","lng":"4.36275","partner":"lukoil","has_products":1,"lpg":"0","cng":"0","igo":"0","shop":"1","adblue":"1","light":"1"},{"ID":"222","zip":"7100","city":"HAINE ST. PAUL","street":"Rue de la D\u00e9portation, 53","lat":"50.4651527777777","lng":"4.199475","partner":"lukoil","has_products":1,"lpg":"1","cng":"0","igo":"0","shop":"1","adblue":"0","light":"1"},{"ID":"223","zip":"7390","city":"WASMUEL","street":"Route de Mons, 81","lat":"50.440825","lng":"3.84748611111111","partner":"lukoil","has_products":1,"lpg":"0","cng":"0","igo":"0","shop":"1","adblue":"0","light":"1"},{"ID":"224","zip":"5100","city":"NANINNE","street":"Chauss\u00e9e de Marche, 886","lat":"50.4211166666666","lng":"4.93728333333333","partner":"lukoil","has_products":1,"lpg":"1","cng":"0","igo":"0","shop":"1","adblue":"0","light":"1"},{"ID":"225","zip":"9120","city":"MELSELE","street":"Grote Baan Antwerpen, 31","lat":"51.2208166666666","lng":"4.3001","partner":"lukoil","has_products":1,"lpg":"0","cng":"0","igo":"0","shop":"1","adblue":"1","light":"1"},{"ID":"226","zip":"1800","city":"VILVOORDE","street":"Mechelsesteenweg 271","lat":"50.9422277777777","lng":"4.43810555555555","partner":"lukoil","has_products":1,"lpg":"1","cng":"0","igo":"0","shop":"1","adblue":"1","light":"1"},{"ID":"227","zip":"1070","city":"BRUXELLES","street":"Rue de Douvres, 114","lat":"50.8386194444444","lng":"4.31265833333333","partner":"lukoil","has_products":1,"lpg":"0","cng":"0","igo":"0","shop":"1","adblue":"0","light":"1"},{"ID":"228","zip":"3600","city":"GENK","street":"Bochtlaan, 40","lat":"50.9700888888888","lng":"5.50207222222222","partner":"lukoil","has_products":1,"lpg":"0","cng":"0","igo":"0","shop":"1","adblue":"0","light":"1"},{"ID":"229","zip":"8400","city":"OOSTENDE (Raversijde)","street":"Nieuwpoortsesteenweg, 540","lat":"51.2057361111111","lng":"2.86678611111111","partner":"lukoil","has_products":1,"lpg":"0","cng":"0","igo":"0","shop":"1","adblue":"0","light":"1"},{"ID":"230","zip":"7866","city":"OLLIGNIES","street":"Chauss\u00e9e Victor Lampe, 186","lat":"50.6726472222222","lng":"3.86792777777777","partner":"lukoil","has_products":1,"lpg":"1","cng":"0","igo":"0","shop":"1","adblue":"1","light":"1"},{"ID":"231","zip":"1190","city":"BRUXELLES","street":"Bld. de la 2\u00e8me Arm. Brit, 15","lat":"50.8201","lng":"4.32485","partner":"lukoil","has_products":1,"lpg":"0","cng":"0","igo":"0","shop":"1","adblue":"0","light":"1"},{"ID":"232","zip":"1090","city":"BRUXELLES","street":"Bld. de Smet de Nayer, 293","lat":"50.8786944444444","lng":"4.33297777777777","partner":"lukoil","has_products":1,"lpg":"0","cng":"0","igo":"0","shop":"1","adblue":"0","light":"1"},{"ID":"233","zip":"4101","city":"JEMEPPE-SUR-MEUSE","street":"Rue Sualem, 2 B","lat":"50.6197583333333","lng":"5.49614444444444","partner":"lukoil","has_products":1,"lpg":"0","cng":"0","igo":"0","shop":"1","adblue":"0","light":"1"},{"ID":"234","zip":"8530","city":"HARELBEKE","street":"Kortrijksesteenweg, 197","lat":"50.8471361111111","lng":"3.29786388888888","partner":"lukoil","has_products":1,"lpg":"0","cng":"0","igo":"0","shop":"1","adblue":"0","light":"1"},{"ID":"235","zip":"9051","city":"ST. DENIJS-WESTREM","street":"Kortrijksesteenweg, 1054","lat":"51.0215472222222","lng":"3.69145833333333","partner":"lukoil","has_products":1,"lpg":"1","cng":"0","igo":"0","shop":"1","adblue":"1","light":"1"},{"ID":"236","zip":"1740","city":"TERNAT","street":"Assesteenweg, 113","lat":"50.8776194444444","lng":"4.1645","partner":"lukoil","has_products":1,"lpg":"0","cng":"0","igo":"0","shop":"1","adblue":"1","light":"1"},{"ID":"237","zip":"1310","city":"LA HULPE","street":"Rue Brodcoorens, 56","lat":"50.7286583333333","lng":"4.48306388888888","partner":"lukoil","has_products":1,"lpg":"0","cng":"0","igo":"0","shop":"1","adblue":"0","light":"1"},{"ID":"238","zip":"1730","city":"ASSE","street":"Nervierstraat, 108","lat":"50.9165583333333","lng":"4.18993888888888","partner":"lukoil","has_products":1,"lpg":"0","cng":"0","igo":"0","shop":"1","adblue":"0","light":"1"},{"ID":"239","zip":"1160","city":"BRUXELLES","street":"Bld. du Souverain, 91","lat":"50.8134111111111","lng":"4.42721666666666","partner":"lukoil","has_products":1,"lpg":"0","cng":"0","igo":"0","shop":"1","adblue":"0","light":"1"},{"ID":"240","zip":"4020","city":"LIEGE","street":"Rue des Vennes, 347","lat":"50.618825","lng":"5.59571944444444","partner":"lukoil","has_products":1,"lpg":"1","cng":"1","igo":"0","shop":"1","adblue":"1","light":"1"},{"ID":"241","zip":"2610","city":"WILRIJK","street":"Jules Moretuslei, 419","lat":"51.172775","lng":"4.40267777777777","partner":"lukoil","has_products":1,"lpg":"1","cng":"0","igo":"0","shop":"1","adblue":"0","light":"1"},{"ID":"242","zip":"2180","city":"EKEREN (Mariaburg)","street":"Kapellesteenweg, 527","lat":"51.2845861111111","lng":"4.449625","partner":"lukoil","has_products":1,"lpg":"0","cng":"0","igo":"0","shop":"1","adblue":"0","light":"1"},{"ID":"243","zip":"7100","city":"LA LOUVIERE","street":"Rue du Bosquet, 5-7","lat":"50.4763527777777","lng":"4.18177222222222","partner":"lukoil","has_products":1,"lpg":"0","cng":"0","igo":"0","shop":"1","adblue":"0","light":"1"},{"ID":"244","zip":"2160","city":"WOMMELGEM","street":"Autolei, 140","lat":"51.2057","lng":"4.48860277777777","partner":"lukoil","has_products":1,"lpg":"0","cng":"0","igo":"0","shop":"1","adblue":"0","light":"1"},{"ID":"245","zip":"3080","city":"TERVUREN","street":"Leuvensesteenweg, 81","lat":"50.8382083333333","lng":"4.54279166666666","partner":"lukoil","has_products":1,"lpg":"0","cng":"0","igo":"0","shop":"1","adblue":"0","light":"1"},{"ID":"246","zip":"8300","city":"KNOKKE (Heist 1)","street":"Natienlaan, 116","lat":"51.3328638888888","lng":"3.29132777777777","partner":"lukoil","has_products":1,"lpg":"0","cng":"0","igo":"0","shop":"1","adblue":"0","light":"1"},{"ID":"247","zip":"9420","city":"ERPE-MERE","street":"Oudenaardsesteenweg, 419","lat":"50.9242277777777","lng":"3.95158333333333","partner":"lukoil","has_products":1,"lpg":"1","cng":"0","igo":"0","shop":"1","adblue":"1","light":"1"},{"ID":"248","zip":"5100","city":"JAMBES","street":"Avenue Prince de Li\u00e8ge, 48","lat":"50.4632111111111","lng":"4.88215","partner":"lukoil","has_products":1,"lpg":"0","cng":"0","igo":"0","shop":"1","adblue":"0","light":"1"},{"ID":"249","zip":"1160","city":"BRUXELLES","street":"Boulevard du Triomphe, 166","lat":"50.8189388888888","lng":"4.403525","partner":"shell","has_products":1,"lpg":"1","cng":"1","igo":"0","shop":"1","adblue":"0","light":"1"},{"ID":"250","zip":"9160","city":"LOKEREN","street":"Bergendriesstraat, 75","lat":"51.1126361111111","lng":"3.98699722222222","partner":"lukoil","has_products":1,"lpg":"1","cng":"0","igo":"0","shop":"1","adblue":"1","light":"1"},{"ID":"251","zip":"7500","city":"TOURNAI","street":"Chauss\u00e9e de Bruxelles, 149 A","lat":"50.6040777777777","lng":"3.41633333333333","partner":"lukoil","has_products":1,"lpg":"1","cng":"0","igo":"0","shop":"1","adblue":"0","light":"1"},{"ID":"252","zip":"2360","city":"OUD-TURNHOUT","street":"Steenweg op Turnhout, 153","lat":"51.3210277777777","lng":"4.96948888888888","partner":"lukoil","has_products":1,"lpg":"0","cng":"0","igo":"0","shop":"1","adblue":"0","light":"1"},{"ID":"253","zip":"4701","city":"KETTENIS","street":"Route de Herbestal, 317","lat":"50.6404388888888","lng":"6.01451111111111","partner":"lukoil","has_products":1,"lpg":"1","cng":"0","igo":"0","shop":"1","adblue":"1","light":"1"},{"ID":"254","zip":"2500","city":"LIER","street":"Steenweg op Aarschot, 79","lat":"51.1161861111111","lng":"4.58546111111111","partner":"lukoil","has_products":1,"lpg":"0","cng":"0","igo":"0","shop":"1","adblue":"0","light":"1"},{"ID":"255","zip":"3511","city":"KURINGEN","street":"Kuringersteenweg, 319","lat":"50.9347472222222","lng":"5.322225","partner":"lukoil","has_products":1,"lpg":"1","cng":"0","igo":"0","shop":"1","adblue":"0","light":"1"},{"ID":"256","zip":"3020","city":"HERENT","street":"Omleiding, 5","lat":"50.9055777777777","lng":"4.67853055555555","partner":"lukoil","has_products":1,"lpg":"0","cng":"0","igo":"0","shop":"1","adblue":"0","light":"1"},{"ID":"257","zip":"9200","city":"GREMBERGEN\/DENDERMONDE","street":"Martelarenlaan, 36","lat":"51.0390111111111","lng":"4.10245277777777","partner":"lukoil","has_products":1,"lpg":"0","cng":"0","igo":"0","shop":"1","adblue":"0","light":"1"},{"ID":"258","zip":"2100","city":"DEURNE","street":"Bisschoppenhoflaan, 315","lat":"51.2337194444444","lng":"4.46263333333333","partner":"lukoil","has_products":1,"lpg":"0","cng":"0","igo":"0","shop":"1","adblue":"0","light":"1"},{"ID":"259","zip":"5060","city":"AUVELAIS","street":"Rue d'Eghez\u00e9e, 1","lat":"50.4513777777777","lng":"4.63503888888888","partner":"lukoil","has_products":1,"lpg":"0","cng":"0","igo":"0","shop":"1","adblue":"0","light":"1"},{"ID":"260","zip":"1170","city":"WATERMAEL\/BOITSFORT","street":"Av. Foresterie\/Heiligenborre","lat":"50.7903638888888","lng":"4.42042777777777","partner":"lukoil","has_products":1,"lpg":"0","cng":"0","igo":"0","shop":"1","adblue":"0","light":"1"},{"ID":"261","zip":"3290","city":"SCHAFFEN","street":"Schoonaerde, 70","lat":"50.9934166666666","lng":"5.06655555555555","partner":"lukoil","has_products":1,"lpg":"0","cng":"0","igo":"0","shop":"1","adblue":"0","light":"1"},{"ID":"262","zip":"7000","city":"MONS","street":"Chauss\u00e9e de Bruxelles, 102-114","lat":"50.4676916666666","lng":"3.95784166666666","partner":"lukoil","has_products":1,"lpg":"0","cng":"0","igo":"0","shop":"1","adblue":"0","light":"1"},{"ID":"263","zip":"2870","city":"BREENDONK(PUURS)","street":"Koning Leopoldlaan, 13","lat":"51.0336527777777","lng":"4.32688611111111","partner":"lukoil","has_products":1,"lpg":"0","cng":"0","igo":"0","shop":"1","adblue":"1","light":"1"},{"ID":"264","zip":"9402","city":"MEERBEKE","street":"Brusselsesteenweg, 252","lat":"50.8289694444444","lng":"4.03908611111111","partner":"lukoil","has_products":1,"lpg":"0","cng":"0","igo":"0","shop":"1","adblue":"1","light":"1"},{"ID":"265","zip":"8900","city":"IEPER","street":"Meenseweg, 220","lat":"50.8491611111111","lng":"2.91311111111111","partner":"lukoil","has_products":1,"lpg":"1","cng":"0","igo":"0","shop":"1","adblue":"0","light":"1"},{"ID":"266","zip":"1300","city":"WAVRE","street":"Chauss\u00e9e de Louvain,199","lat":"50.7168694444444","lng":"4.62128611111111","partner":"lukoil","has_products":1,"lpg":"0","cng":"0","igo":"0","shop":"1","adblue":"0","light":"1"},{"ID":"267","zip":"1820","city":"MELSBROEK","street":"Haachtsesteenweg, 146","lat":"50.9136833333333","lng":"4.487475","partner":"lukoil","has_products":1,"lpg":"0","cng":"0","igo":"0","shop":"1","adblue":"1","light":"1"},{"ID":"268","zip":"1082","city":"BRUXELLES","street":"Avenue Charles Quint, 480","lat":"50.8714416666666","lng":"4.29502777777777","partner":"lukoil","has_products":1,"lpg":"0","cng":"0","igo":"0","shop":"1","adblue":"0","light":"1"},{"ID":"269","zip":"8820","city":"TORHOUT","street":"Vredelaan, 76","lat":"51.0604611111111","lng":"3.09536666666666","partner":"lukoil","has_products":1,"lpg":"0","cng":"0","igo":"0","shop":"1","adblue":"0","light":"1"},{"ID":"270","zip":"4031","city":"ANGLEUR","street":"Rue d'Ougr\u00e9e, 61","lat":"50.6118861111111","lng":"5.58434444444444","partner":"lukoil","has_products":1,"lpg":"0","cng":"0","igo":"0","shop":"1","adblue":"0","light":"1"},{"ID":"271","zip":"9050","city":"GENTBRUGGE","street":"Brusselsesteenweg, 679","lat":"51.0277805555555","lng":"3.76736388888888","partner":"lukoil","has_products":1,"lpg":"0","cng":"0","igo":"0","shop":"1","adblue":"0","light":"1"},{"ID":"272","zip":"1731","city":"ZELLIK","street":"Brusselse Steenweg, 474","lat":"50.890675","lng":"4.25825555555555","partner":"lukoil","has_products":1,"lpg":"1","cng":"0","igo":"0","shop":"1","adblue":"1","light":"1"},{"ID":"273","zip":"2170","city":"MERKSEM","street":"Groenendaallaan, 170","lat":"51.2438194444444","lng":"4.42968333333333","partner":"lukoil","has_products":1,"lpg":"0","cng":"0","igo":"0","shop":"1","adblue":"0","light":"1"},{"ID":"274","zip":"7000","city":"MONS","street":"Chauss\u00e9e de Binche, 20-22","lat":"50.4527805555555","lng":"3.97011666666666","partner":"lukoil","has_products":1,"lpg":"0","cng":"0","igo":"0","shop":"1","adblue":"0","light":"1"},{"ID":"275","zip":"2160","city":"WOMMELGEM","street":"Kempenlaan, 10","lat":"51.1973722222222","lng":"4.52829722222222","partner":"lukoil","has_products":1,"lpg":"0","cng":"0","igo":"0","shop":"1","adblue":"0","light":"1"},{"ID":"276","zip":"3010","city":"KESSEL-LO","street":"Steenweg op Diest, 718","lat":"50.8891222222222","lng":"4.76541111111111","partner":"lukoil","has_products":1,"lpg":"1","cng":"1","igo":"0","shop":"1","adblue":"0","light":"1"},{"ID":"277","zip":"1930","city":"ZAVENTEM","street":"Leuvensesteenweg, 522","lat":"50.873275","lng":"4.485225","partner":"lukoil","has_products":1,"lpg":"0","cng":"0","igo":"0","shop":"1","adblue":"1","light":"1"},{"ID":"278","zip":"1910","city":"KAMPENHOUT","street":"Haachtsesteenweg, 701","lat":"50.9584222222222","lng":"4.59621666666666","partner":"lukoil","has_products":1,"lpg":"0","cng":"0","igo":"0","shop":"1","adblue":"1","light":"1"},{"ID":"279","zip":"2180","city":"EKEREN","street":"Leugenberg, 159-163","lat":"51.2985194444444","lng":"4.41093333333333","partner":"lukoil","has_products":1,"lpg":"0","cng":"0","igo":"0","shop":"1","adblue":"0","light":"1"},{"ID":"280","zip":"1040","city":"BRUXELLES","street":"Rue Gray, 69","lat":"50.8348222222222","lng":"4.379775","partner":"lukoil","has_products":1,"lpg":"0","cng":"0","igo":"0","shop":"1","adblue":"0","light":"1"},{"ID":"281","zip":"2550","city":"KONTICH","street":"Koningin Astridlaan, 36","lat":"51.1289194444444","lng":"4.45494166666666","partner":"lukoil","has_products":1,"lpg":"0","cng":"0","igo":"0","shop":"1","adblue":"0","light":"1"},{"ID":"282","zip":"6940","city":"BARVAUX-SUR-OURTHE","street":"Route de Marche, 68","lat":"50.343375","lng":"5.48658333333333","partner":"lukoil","has_products":1,"lpg":"1","cng":"0","igo":"0","shop":"1","adblue":"0","light":"1"},{"ID":"283","zip":"2812","city":"MUIZEN","street":"Leuvensesteenweg, 240","lat":"51.0134944444444","lng":"4.50200833333333","partner":"lukoil","has_products":1,"lpg":"0","cng":"0","igo":"0","shop":"1","adblue":"0","light":"1"},{"ID":"284","zip":"6040","city":"JUMET","street":"Chauss\u00e9e de Bruxelles, 415","lat":"50.4502861111111","lng":"4.43366666666666","partner":"lukoil","has_products":1,"lpg":"1","cng":"0","igo":"0","shop":"1","adblue":"0","light":"1"},{"ID":"285","zip":"1653","city":"DWORP","street":"Steenweg op Alsemberg, 744","lat":"50.7355694444444","lng":"4.28604444444444","partner":"lukoil","has_products":1,"lpg":"0","cng":"0","igo":"0","shop":"1","adblue":"0","light":"1"},{"ID":"286","zip":"8310","city":"ASSEBROEK","street":"Baron Ruzettelaan, 6","lat":"51.1984583333333","lng":"3.23051944444444","partner":"lukoil","has_products":1,"lpg":"0","cng":"0","igo":"0","shop":"1","adblue":"0","light":"1"},{"ID":"287","zip":"3090","city":"OVERIJSE (MALAISE)","street":"Terhulpensteenweg, 391","lat":"50.7506305555555","lng":"4.52298055555555","partner":"lukoil","has_products":1,"lpg":"1","cng":"0","igo":"0","shop":"1","adblue":"0","light":"1"},{"ID":"288","zip":"9900","city":"EEKLO","street":"Gentsesteenweg, 73","lat":"51.175625","lng":"3.58065277777777","partner":"lukoil","has_products":1,"lpg":"0","cng":"0","igo":"0","shop":"1","adblue":"0","light":"1"},{"ID":"289","zip":"2650","city":"EDEGEM","street":"Kontichstraat-Boniverlei, 206","lat":"51.1460222222222","lng":"4.44673611111111","partner":"lukoil","has_products":1,"lpg":"0","cng":"0","igo":"0","shop":"1","adblue":"0","light":"1"},{"ID":"290","zip":"4040","city":"HERSTAL","street":"Boulevard Z\u00e9nobe Gramme, 51","lat":"50.6593138888888","lng":"5.62857777777777","partner":"lukoil","has_products":1,"lpg":"1","cng":"0","igo":"0","shop":"1","adblue":"0","light":"1"},{"ID":"291","zip":"3090","city":"OVERIJSE (JEZUS-EIK)","street":"Brusselsesteenweg, 482","lat":"50.7885972222222","lng":"4.49461944444444","partner":"lukoil","has_products":1,"lpg":"0","cng":"0","igo":"0","shop":"1","adblue":"1","light":"1"},{"ID":"292","zip":"2840","city":"RUMST","street":"Bussestraat, 13","lat":"51.0855305555555","lng":"4.44879722222222","partner":"lukoil","has_products":1,"lpg":"1","cng":"0","igo":"0","shop":"1","adblue":"1","light":"1"},{"ID":"293","zip":"2440","city":"GEEL","street":"Antwerpseweg, 130","lat":"51.1401166666666","lng":"4.94276666666666","partner":"lukoil","has_products":1,"lpg":"1","cng":"0","igo":"0","shop":"1","adblue":"1","light":"1"},{"ID":"294","zip":"1150","city":"WOLUWE ST. PIERRE","street":"Avenue de Wezembeek, 20","lat":"50.8483666666666","lng":"4.46326944444444","partner":"lukoil","has_products":1,"lpg":"0","cng":"0","igo":"0","shop":"1","adblue":"0","light":"1"},{"ID":"295","zip":"1340","city":"OTTIGNIES","street":"Avenue Provinciale, 90","lat":"50.6564277777777","lng":"4.56301666666666","partner":"lukoil","has_products":1,"lpg":"1","cng":"0","igo":"0","shop":"1","adblue":"0","light":"1"},{"ID":"296","zip":"1970","city":"WEZEMBEEK-OPPEM","street":"Mechelsesteenweg, 254","lat":"50.8367583333333","lng":"4.48966666666666","partner":"lukoil","has_products":1,"lpg":"0","cng":"0","igo":"0","shop":"1","adblue":"0","light":"1"},{"ID":"297","zip":"1180","city":"BRUXELLES","street":"R. de Stalle\/R. du Roetaert, 3","lat":"50.7969444444444","lng":"4.33028888888888","partner":"lukoil","has_products":1,"lpg":"0","cng":"0","igo":"0","shop":"1","adblue":"0","light":"1"},{"ID":"298","zip":"9840","city":"ZEVERGEM","street":"Grote Steenweg, 16","lat":"51.0020472222222","lng":"3.69141388888888","partner":"lukoil","has_products":1,"lpg":"0","cng":"0","igo":"0","shop":"1","adblue":"0","light":"1"},{"ID":"299","zip":"1640","city":"RHODE ST. GENESE","street":"Chauss\u00e9e de Waterloo, 240","lat":"50.7419722222222","lng":"4.39428611111111","partner":"lukoil","has_products":1,"lpg":"0","cng":"0","igo":"0","shop":"1","adblue":"0","light":"1"},{"ID":"300","zip":"1301","city":"BIERGES","street":"Rue de Champles, 32","lat":"50.7199416666666","lng":"4.57710833333333","partner":"lukoil","has_products":1,"lpg":"1","cng":"0","igo":"0","shop":"1","adblue":"0","light":"1"},{"ID":"301","zip":"3800","city":"ST. TRUIDEN (MELVEREN)","street":"Hasseltsesteenweg, 65","lat":"50.8287555555555","lng":"5.201975","partner":"lukoil","has_products":1,"lpg":"0","cng":"0","igo":"0","shop":"1","adblue":"0","light":"1"},{"ID":"302","zip":"9051","city":"ST. DENIJS-WESTREM","street":"Beukenlaan, 86","lat":"51.0319444444444","lng":"3.68494722222222","partner":"lukoil","has_products":1,"lpg":"0","cng":"0","igo":"0","shop":"1","adblue":"0","light":"1"},{"ID":"303","zip":"8520","city":"KUURNE","street":"Brugsesteenweg, 204","lat":"50.8578444444444","lng":"3.2703","partner":"lukoil","has_products":1,"lpg":"0","cng":"0","igo":"0","shop":"1","adblue":"0","light":"1"},{"ID":"304","zip":"1420","city":"BRAINE L'ALLEUD","street":"Chauss\u00e9e de Nivelles, 9","lat":"50.6879166666666","lng":"4.40528055555555","partner":"lukoil","has_products":1,"lpg":"0","cng":"0","igo":"0","shop":"1","adblue":"0","light":"1"},{"ID":"305","zip":"1702","city":"GROOT-BIJGAARDEN","street":"Brusselstraat, 12 A","lat":"50.867363","lng":"4.279531","partner":"lukoil","has_products":1,"lpg":"0","cng":"0","igo":"0","shop":"1","adblue":"0","light":"1"},{"ID":"306","zip":"9100","city":"ST. NIKLAAS","street":"Kleibeekstraat, 1","lat":"51.1743944444444","lng":"4.12076111111111","partner":"lukoil","has_products":1,"lpg":"0","cng":"0","igo":"0","shop":"1","adblue":"0","light":"1"},{"ID":"307","zip":"1090","city":"BRUXELLES","street":"Avenue de l'Exposition, 339","lat":"50.8835055555555","lng":"4.31710555555555","partner":"lukoil","has_products":1,"lpg":"0","cng":"0","igo":"0","shop":"1","adblue":"0","light":"1"},{"ID":"308","zip":"6200","city":"CHATELINEAU","street":"Rue de Gilly, 106\/126","lat":"50.4120583333333","lng":"4.501675","partner":"lukoil","has_products":1,"lpg":"0","cng":"0","igo":"0","shop":"1","adblue":"0","light":"1"},{"ID":"309","zip":"7520","city":"TOURNAI(RAMEGNIES-CHIN)","street":"Chauss\u00e9e de Tournai, 8\/03","lat":"50.6477611111111","lng":"3.34331111111111","partner":"lukoil","has_products":1,"lpg":"0","cng":"0","igo":"0","shop":"1","adblue":"0","light":"1"},{"ID":"310","zip":"4820","city":"DISON","street":"Rue Trauty, 27","lat":"50.6078722222222","lng":"5.85511111111111","partner":"lukoil","has_products":1,"lpg":"0","cng":"0","igo":"0","shop":"1","adblue":"0","light":"1"},{"ID":"311","zip":"2140","city":"BORGERHOUT","street":"Hoek Gijselstraat \/ Statielei, 177","lat":"51.2152861111111","lng":"4.44483611111111","partner":"lukoil","has_products":1,"lpg":"0","cng":"0","igo":"0","shop":"1","adblue":"0","light":"1"},{"ID":"312","zip":"3010","city":"KESSEL-LO","street":"Tiensesteenweg, 235","lat":"50.8709333333333","lng":"4.72613611111111","partner":"lukoil","has_products":1,"lpg":"0","cng":"0","igo":"0","shop":"1","adblue":"0","light":"1"},{"ID":"313","zip":"1700","city":"DILBEEK","street":"Ninoofsesteenweg, 11","lat":"50.8457666666666","lng":"4.28283611111111","partner":"lukoil","has_products":1,"lpg":"0","cng":"0","igo":"0","shop":"1","adblue":"0","light":"1"},{"ID":"314","zip":"1500","city":"HALLE","street":"August Demaeghtlaan 195","lat":"50.7350722222222","lng":"4.23023333333333","partner":"lukoil","has_products":1,"lpg":"0","cng":"0","igo":"0","shop":"1","adblue":"1","light":"1"},{"ID":"315","zip":"1300","city":"WAVRE","street":"Ch. de Namur 155","lat":"50.6967611111111","lng":"4.61537222222222","partner":"lukoil","has_products":1,"lpg":"0","cng":"0","igo":"0","shop":"1","adblue":"0","light":"1"},{"ID":"316","zip":"4600","city":"VISE","street":"Rue de Jupille, 15 B","lat":"50.7233361111111","lng":"5.69311111111111","partner":"lukoil","has_products":1,"lpg":"1","cng":"0","igo":"0","shop":"1","adblue":"0","light":"1"},{"ID":"317","zip":"7611","city":"RUMES","street":"Ch. Montgomery 120","lat":"50.5311138888888","lng":"3.28774722222222","partner":"lukoil","has_products":1,"lpg":"0","cng":"0","igo":"0","shop":"1","adblue":"0","light":"1"},{"ID":"318","zip":"1400","city":"NIVELLES","street":"Ch. de Mons 4\/6","lat":"50.5894472222222","lng":"4.31268333333333","partner":"lukoil","has_products":1,"lpg":"1","cng":"0","igo":"0","shop":"1","adblue":"0","light":"1"},{"ID":"319","zip":"8800","city":"ROESELARE","street":"Westlaan 217","lat":"50.9424944444444","lng":"3.11403055555555","partner":"lukoil","has_products":1,"lpg":"0","cng":"0","igo":"0","shop":"1","adblue":"0","light":"1"},{"ID":"320","zip":"4621","city":"RETINNE","street":"Rue de la Clef, 73","lat":"50.6193361111111","lng":"5.69685833333333","partner":"lukoil","has_products":1,"lpg":"1","cng":"0","igo":"0","shop":"1","adblue":"0","light":"1"},{"ID":"321","zip":"3290","city":"DIEST (Webbekom)","street":"Halensebaan, 121","lat":"50.9712111111111","lng":"5.07187777777777","partner":"lukoil","has_products":1,"lpg":"1","cng":"0","igo":"0","shop":"1","adblue":"0","light":"1"},{"ID":"322","zip":"3012","city":"WILSELE","street":"Aarschotsesteenweg, 267","lat":"50.9160861111111","lng":"4.71653055555555","partner":"lukoil","has_products":1,"lpg":"0","cng":"0","igo":"0","shop":"1","adblue":"0","light":"1"},{"ID":"323","zip":"7333","city":"TERTRE","street":"Rue de la Rivi\u00e8rette, 13","lat":"50.4617527777777","lng":"3.81109722222222","partner":"lukoil","has_products":1,"lpg":"0","cng":"0","igo":"0","shop":"1","adblue":"0","light":"1"},{"ID":"324","zip":"9000","city":"GENT","street":"Nieuve Vaart, 152","lat":"51.0666230843686","lng":"7.1439817019139","partner":"lukoil","has_products":1,"lpg":"0","cng":"0","igo":"0","shop":"1","adblue":"1","light":"1"},{"ID":"325","zip":"4300","city":"WAREMME","street":"Rue Saint-Eloi, 2A","lat":"50.6969666666666","lng":"5.26381388888888","partner":"lukoil","has_products":1,"lpg":"1","cng":"0","igo":"0","shop":"1","adblue":"0","light":"1"},{"ID":"326","zip":"6041","city":"GOSSELIES","street":"Chauss\u00e9e de Courcelles, 222","lat":"50.4626694444444","lng":"4.41220833333333","partner":"lukoil","has_products":1,"lpg":"1","cng":"0","igo":"0","shop":"1","adblue":"1","light":"1"},{"ID":"327","zip":"6001","city":"MARCINELLE","street":"Avenue Mascaux, 298\/314","lat":"50.3917916666666","lng":"4.43848333333333","partner":"lukoil","has_products":1,"lpg":"0","cng":"0","igo":"0","shop":"1","adblue":"0","light":"1"},{"ID":"328","zip":"3580","city":"BERINGEN","street":"Paalsesteenweg, 77","lat":"51.0456583333333","lng":"5.20776388888888","partner":"lukoil","has_products":1,"lpg":"0","cng":"0","igo":"0","shop":"1","adblue":"0","light":"1"},{"ID":"329","zip":"6042","city":"LODELINSART","street":"Chauss\u00e9e de Ch\u00e2telet, 183","lat":"50.4295638888888","lng":"4.44885","partner":"lukoil","has_products":1,"lpg":"0","cng":"0","igo":"0","shop":"1","adblue":"0","light":"1"},{"ID":"330","zip":"3200","city":"AARSCHOT","street":"Terheidelaan, 71","lat":"50.9907861111111","lng":"4.81267777777777","partner":"lukoil","has_products":1,"lpg":"0","cng":"0","igo":"0","shop":"1","adblue":"1","light":"1"},{"ID":"331","zip":"1501","city":"BUIZINGEN","street":"Alsembergesesteenweg, 19","lat":"50.7460972222222","lng":"4.26646388888888","partner":"shell","has_products":1,"lpg":"1","cng":"0","igo":"0","shop":"1","adblue":"1","light":"1"},{"ID":"332","zip":"1840","city":"LONDERZEEL","street":"Kerkhofstraat, 75","lat":"51.00105","lng":"4.30920555555555","partner":"lukoil","has_products":1,"lpg":"0","cng":"0","igo":"0","shop":"1","adblue":"0","light":"1"},{"ID":"333","zip":"2801","city":"HEFFEN","street":"Steenweg op Blaasveld, 87","lat":"51.0470027777777","lng":"4.40321111111111","partner":"lukoil","has_products":1,"lpg":"1","cng":"0","igo":"0","shop":"1","adblue":"0","light":"1"},{"ID":"334","zip":"1640","city":"ST-GENESIUS RODE","street":"Zoni\u00ebnwoudlaan, 140","lat":"50.7452277777777","lng":"4.35413888888888","partner":"lukoil","has_products":1,"lpg":"0","cng":"0","igo":"0","shop":"1","adblue":"0","light":"1"},{"ID":"335","zip":"8870","city":"IZEGEM","street":"Lodewijk de Raetlaan, 1","lat":"50.9247472222222","lng":"3.21598888888888","partner":"lukoil","has_products":1,"lpg":"1","cng":"0","igo":"0","shop":"1","adblue":"1","light":"1"},{"ID":"336","zip":"2970","city":"SCHILDE","street":"Turnhoutsebaan, 478","lat":"51.2471555555555","lng":"4.59940555555555","partner":"lukoil","has_products":1,"lpg":"0","cng":"0","igo":"0","shop":"1","adblue":"0","light":"1"},{"ID":"337","zip":"1380","city":"LASNE","street":"Chauss\u00e9e de Louvain, 431","lat":"50.7043583333333","lng":"4.43098333333333","partner":"lukoil","has_products":1,"lpg":"0","cng":"0","igo":"0","shop":"1","adblue":"0","light":"1"},{"ID":"338","zip":"2800","city":"MECHELEN","street":"Antwerpsesteenweg 197,","lat":"51.0527","lng":"4.46455","partner":"lukoil","has_products":1,"lpg":"0","cng":"0","igo":"0","shop":"1","adblue":"1","light":"1"},{"ID":"339","zip":"4800","city":"ENSIVAL","street":"Route de P\u00e9pinster, 98","lat":"50.578","lng":"5.83719444444444","partner":"lukoil","has_products":1,"lpg":"1","cng":"0","igo":"0","shop":"1","adblue":"0","light":"1"},{"ID":"340","zip":"1435","city":"CORBAIS","street":"Grand Route, 36","lat":"50.6424861111111","lng":"4.64708888888888","partner":"lukoil","has_products":1,"lpg":"0","cng":"0","igo":"0","shop":"1","adblue":"0","light":"1"},{"ID":"341","zip":"3530","city":"HOUTHALEN","street":"Grote Baan, 5","lat":"51.0203555555555","lng":"5.37360555555555","partner":"lukoil","has_products":1,"lpg":"1","cng":"0","igo":"0","shop":"1","adblue":"0","light":"1"},{"ID":"342","zip":"6140","city":"FONTAINE L'EVEQUE","street":"Route de Mons, 22","lat":"50.4069777777777","lng":"4.31817777777777","partner":"lukoil","has_products":1,"lpg":"0","cng":"0","igo":"0","shop":"1","adblue":"0","light":"1"},{"ID":"343","zip":"9700","city":"OUDENAARDE","street":"Deinzestraat, 163","lat":"50.8599722222222","lng":"3.57942222222222","partner":"lukoil","has_products":1,"lpg":"1","cng":"0","igo":"0","shop":"1","adblue":"1","light":"1"},{"ID":"344","zip":"3730","city":"HOESELT","street":"Bilzersteenweg, 53 A","lat":"50.8568361111111","lng":"5.49785555555555","partner":"lukoil","has_products":1,"lpg":"1","cng":"0","igo":"0","shop":"1","adblue":"0","light":"1"},{"ID":"345","zip":"2200","city":"HERENTALS","street":"Aarschotseweg, 22\/2","lat":"51.1649944444444","lng":"4.84614444444444","partner":"lukoil","has_products":1,"lpg":"1","cng":"0","igo":"0","shop":"1","adblue":"0","light":"1"},{"ID":"346","zip":"4920","city":"AYWAILLE","street":"Avenue de la Porall\u00e9e, 53","lat":"50.4797277777777","lng":"5.70116666666666","partner":"lukoil","has_products":1,"lpg":"1","cng":"0","igo":"0","shop":"1","adblue":"0","light":"1"},{"ID":"347","zip":"1130","city":"BRUXELLES","street":"Chauss\u00e9e de Haacht, 1463","lat":"50.8858719","lng":"4.4225473","partner":"lukoil","has_products":1,"lpg":"1","cng":"0","igo":"0","shop":"1","adblue":"1","light":"1"},{"ID":"348","zip":"1070","city":"BRUXELLES","street":"Boulevard Industriel, 71","lat":"50.8225638888888","lng":"4.30789166666666","partner":"lukoil","has_products":1,"lpg":"1","cng":"1","igo":"0","shop":"1","adblue":"1","light":"1"},{"ID":"349","zip":"9140","city":"TEMSE","street":"Krijgsbaan, 170","lat":"51.1289888888888","lng":"4.23275","partner":"lukoil","has_products":1,"lpg":"1","cng":"0","igo":"0","shop":"1","adblue":"0","light":"1"},{"ID":"350","zip":"7730","city":"NECHIN","street":"Rue de la Festingue, 36C","lat":"50.6585138888888","lng":"3.2404","partner":"lukoil","has_products":1,"lpg":"0","cng":"0","igo":"0","shop":"1","adblue":"0","light":"1"},{"ID":"351","zip":"5100","city":"JAMBES","street":"Chauss\u00e9e de Li\u00e8ge, 561","lat":"50.463975","lng":"4.90120833333333","partner":"lukoil","has_products":1,"lpg":"0","cng":"0","igo":"0","shop":"1","adblue":"0","light":"1"},{"ID":"352","zip":"2980","city":"ZOERSEL","street":"Rodendijk 58","lat":"51.2467194444444","lng":"4.70386944444444","partner":"lukoil","has_products":1,"lpg":"0","cng":"1","igo":"0","shop":"1","adblue":"0","light":"1"},{"ID":"353","zip":"4802","city":"VERVIERS","street":"Avenue Reine Astrid 103,","lat":"50.5844666666666","lng":"5.88363333333333","partner":"lukoil","has_products":1,"lpg":"0","cng":"0","igo":"0","shop":"1","adblue":"0","light":"1"},{"ID":"354","zip":"4960","city":"MALMEDY","street":"Avenue des Alli\u00e9s, 80","lat":"50.4234777777777","lng":"6.01826944444444","partner":"lukoil","has_products":1,"lpg":"1","cng":"0","igo":"0","shop":"1","adblue":"0","light":"1"},{"ID":"355","zip":"3600","city":"GENK","street":"Hasseltweg, 12-14","lat":"50.9647027777777","lng":"5.47503888888888","partner":"lukoil","has_products":1,"lpg":"1","cng":"1","igo":"1","shop":"1","adblue":"1","light":"0"},{"ID":"356","zip":"3550","city":"HEUSDEN ZOLDER","street":"Meylandtlaan 169,","lat":"50.9647027777777","lng":"5.47503888888888","partner":"lukoil","has_products":1,"lpg":"0","cng":"0","igo":"0","shop":"1","adblue":"0","light":"1"},{"ID":"357","zip":"2060","city":"ANTWERPEN","street":"Schijnpoort, 22","lat":"51.2273066996877","lng":"4.43906886141187","partner":"lukoil","has_products":1,"lpg":"0","cng":"0","igo":"0","shop":"1","adblue":"0","light":"1"},{"ID":"358","zip":"7060","city":"SOIGNIES","street":"Boulevard Roosevelt, 41","lat":"50.5814030306363","lng":"4.06835095269932","partner":"lukoil","has_products":1,"lpg":"0","cng":"0","igo":"0","shop":"1","adblue":"0","light":"1"},{"ID":"359","zip":"4100","city":"SERAING","street":"Rue du Charbonnage 18","lat":"50.6059685","lng":"5.5002427","partner":"lukoil","has_products":1,"lpg":"0","cng":"0","igo":"1","shop":"1","adblue":"0","light":"1"},{"ID":"360","zip":"5630","city":"CERFONTAINE","street":"Rue de la Gare, 24","lat":"50.170826","lng":"4.4097099","partner":"lukoil","has_products":1,"lpg":"0","cng":"0","igo":"1","shop":"1","adblue":"0","light":"1"},{"ID":"361","zip":"5600","city":"NEUVILLE","street":"Route de Mariambourg, 39","lat":"50.1567764","lng":"4.5087523","partner":"lukoil","has_products":1,"lpg":"0","cng":"0","igo":"1","shop":"1","adblue":"1","light":"1"},{"ID":"362","zip":"6043","city":"RANSART","street":"Rue Eau-Sur-Elle, 2","lat":"50.4552727","lng":"4.4644871","partner":"lukoil","has_products":1,"lpg":"0","cng":"0","igo":"1","shop":"1","adblue":"0","light":"1"},{"ID":"363","zip":"4100","city":"SERAING","street":"Rue du Many, 111","lat":"50.6059685","lng":"5.5172153","partner":"lukoil","has_products":1,"lpg":"1","cng":"0","igo":"1","shop":"1","adblue":"0","light":"1"},{"ID":"364","zip":"5030","city":"GEMBLOUX","street":"Chauss\u00e9e de Charleroi, 247","lat":"50.554252","lng":"4.670768","partner":"lukoil","has_products":1,"lpg":"1","cng":"0","igo":"0","shop":"1","adblue":"0","light":"1"},{"ID":"365","zip":"5500","city":"DINANT","street":"Chauss\u00e9e d'Yvoir, 1","lat":"50.2722588","lng":"4.9028602","partner":"lukoil","has_products":1,"lpg":"0","cng":"0","igo":"1","shop":"1","adblue":"0","light":"1"},{"ID":"366","zip":"5660","city":"COUVIN","street":"Rue du Pont du Roy, 14","lat":"50.0424347","lng":"4.5009274","partner":"lukoil","has_products":1,"lpg":"1","cng":"0","igo":"1","shop":"1","adblue":"0","light":"1"},{"ID":"367","zip":"3640","city":"KINROOI","street":"Venlosesteenweg, 373","lat":"51.1532364","lng":"5.8112345","partner":"lukoil","has_products":1,"lpg":"0","cng":"0","igo":"0","shop":"1","adblue":"0","light":"1"},{"ID":"368","zip":"3630","city":"MAASMECHELEN","street":"Rijksweg, 603","lat":"50.939653","lng":"5.692029","partner":"lukoil","has_products":1,"lpg":"1","cng":"0","igo":"1","shop":"1","adblue":"1","light":"1"},{"ID":"369","zip":"3620","city":"LANAKEN","street":"Koning Albertlaan, 227","lat":"50.895381","lng":"5.666628","partner":"lukoil","has_products":1,"lpg":"0","cng":"0","igo":"0","shop":"1","adblue":"0","light":"1"},{"ID":"370","zip":"2560","city":"NIJLEN","street":"Bouwelsesteenweg,107 ","lat":"51.1652149","lng":"4.6827617","partner":"lukoil","has_products":1,"lpg":"0","cng":"0","igo":"0","shop":"0","adblue":"0","light":"1"},{"ID":"371","zip":"3500","city":"Hasselt","street":"Sint Truidersteenweg 335","lat":"50.91406","lng":"5.322765","partner":"lukoil","has_products":1,"lpg":"0","cng":"0","igo":"0","shop":"0","adblue":"0","light":"1"},{"ID":"372","zip":"3940","city":"Hechtel","street":"Peerderbaan 1","lat":"51.1256","lng":"5.368341","partner":"lukoil","has_products":1,"lpg":"0","cng":"0","igo":"0","shop":"0","adblue":"0","light":"1"},{"ID":"373","zip":"3621","city":"Rekem","street":"Steenweg 287","lat":"50.935458","lng":"5.690528","partner":"lukoil","has_products":1,"lpg":"0","cng":"0","igo":"0","shop":"0","adblue":"0","light":"1"},{"ID":"374","zip":"3920","city":"Lommel","street":"Luikersteenweg 313","lat":"51.243274","lng":"5.38128","partner":"lukoil","has_products":1,"lpg":"0","cng":"0","igo":"0","shop":"0","adblue":"0","light":"1"},{"ID":"375","zip":"3510","city":"Kermt","street":"Diestersteenweg 238","lat":"50.948005","lng":"5.248157","partner":"lukoil","has_products":1,"lpg":"0","cng":"0","igo":"0","shop":"0","adblue":"0","light":"1"},{"ID":"376","zip":"3680","city":"Opoeteren","street":"Zandstraat 10","lat":"51.067641","lng":"5.659157","partner":"lukoil","has_products":1,"lpg":"0","cng":"0","igo":"0","shop":"0","adblue":"0","light":"1"},{"ID":"377","zip":"7380","city":"Qui\u00e9vrain","street":"Rue de Mons 253","lat":"50.410295","lng":"3.700072","partner":"lukoil","has_products":1,"lpg":"0","cng":"0","igo":"0","shop":"0","adblue":"0","light":"1"},{"ID":"378","zip":"3600","city":"Waterschei","street":"Weg naar As 290","lat":"50.981047","lng":"5.531162","partner":"lukoil","has_products":1,"lpg":"0","cng":"0","igo":"0","shop":"0","adblue":"0","light":"1"},{"ID":"379","zip":"3600","city":"Winterslag","street":"Vennestraat 32","lat":"50.983181","lng":"5.49595","partner":"lukoil","has_products":1,"lpg":"0","cng":"0","igo":"0","shop":"0","adblue":"0","light":"1"},{"ID":"380","zip":"3520","city":"Zonhoven","street":"Molenweg 95","lat":"50.986801","lng":"5.413767","partner":"lukoil","has_products":1,"lpg":"0","cng":"0","igo":"0","shop":"0","adblue":"0","light":"1"},{"ID":"381","zip":"6740","city":"ETALLE","street":"RUE DU MOULIN 74","lat":"49.67315314","lng":"5.59429944","partner":"esso","has_products":1,"lpg":"0","cng":"0","igo":"0","shop":"0","adblue":"0","light":"0"},{"ID":"382","zip":"6880","city":"BERTRIX","street":"RUE DE LA GARE 128","lat":"49.85465576","lng":"5.26392102","partner":"esso","has_products":1,"lpg":"0","cng":"0","igo":"0","shop":"0","adblue":"0","light":"0"},{"ID":"383","zip":"6800","city":"LIBRAMONT","street":"ROUTE DE NEUFCHATEAU 1","lat":"49.91192724","lng":"5.35403252","partner":"esso","has_products":1,"lpg":"0","cng":"0","igo":"0","shop":"0","adblue":"0","light":"0"},{"ID":"384","zip":"6850","city":"PALISEUL","street":"RUE DE MAISSIN 58","lat":"49.91316393","lng":"5.14405847","partner":"esso","has_products":1,"lpg":"0","cng":"0","igo":"0","shop":"0","adblue":"0","light":"0"},{"ID":"385","zip":"6600","city":"BASTOGNE","street":"RUE DU MARCHE COUVERT 14","lat":"49.98940976","lng":"5.70933387","partner":"esso","has_products":1,"lpg":"0","cng":"0","igo":"0","shop":"0","adblue":"0","light":"0"},{"ID":"386","zip":"6590","city":"MOMIGNIES","street":"RUE MANDENNE 39","lat":"50.02910265","lng":"4.14546132","partner":"esso","has_products":1,"lpg":"0","cng":"0","igo":"0","shop":"0","adblue":"1","light":"0"},{"ID":"387","zip":"5660","city":"MARIEMBOURG","street":"CHAUSSEE DE PHILIPPEVILLE 93","lat":"50.09657795","lng":"4.5113951","partner":"esso","has_products":1,"lpg":"0","cng":"0","igo":"0","shop":"0","adblue":"0","light":"0"},{"ID":"388","zip":"5570","city":"BEAURAING","street":"RUE DE DINANT 118","lat":"50.11888582","lng":"4.95494932","partner":"esso","has_products":1,"lpg":"0","cng":"0","igo":"0","shop":"0","adblue":"0","light":"0"},{"ID":"389","zip":"5580","city":"WAVREILLE","street":"RDE RAMETENNE 1","lat":"50.12362026","lng":"5.25356233","partner":"esso","has_products":1,"lpg":"0","cng":"0","igo":"0","shop":"0","adblue":"0","light":"0"},{"ID":"390","zip":"5580","city":"ROCHEFORT","street":"RUE DE LA LIBERATION 73","lat":"50.16544974","lng":"5.21232069","partner":"esso","has_products":1,"lpg":"0","cng":"0","igo":"0","shop":"0","adblue":"0","light":"0"},{"ID":"391","zip":"6900","city":"ON","street":"RUE DES COMBATTANTS 39","lat":"50.16834645","lng":"5.2785176","partner":"esso","has_products":1,"lpg":"0","cng":"0","igo":"0","shop":"0","adblue":"0","light":"0"},{"ID":"392","zip":"5540","city":"HASTIERE","street":"AVENUE GUY STINGHLAMBER 22","lat":"50.21340723","lng":"4.82063507","partner":"esso","has_products":1,"lpg":"0","cng":"0","igo":"0","shop":"0","adblue":"0","light":"0"},{"ID":"393","zip":"6440","city":"BOUSSU-LEZ-WALCOURT","street":"CHAUSSEE DE BEAUMONT","lat":"50.22864206","lng":"4.3716067","partner":"esso","has_products":1,"lpg":"0","cng":"0","igo":"0","shop":"0","adblue":"0","light":"0"},{"ID":"394","zip":"6500","city":"BEAUMONT","street":"ROUTE D CHIMAY 26","lat":"50.230688","lng":"4.23509002","partner":"esso","has_products":1,"lpg":"0","cng":"0","igo":"0","shop":"0","adblue":"0","light":"0"},{"ID":"395","zip":"6560","city":"SOLRE-S\/SAMBRE","street":"RUE DE LA THURE 1","lat":"50.29898294","lng":"4.15819377","partner":"esso","has_products":1,"lpg":"0","cng":"0","igo":"0","shop":"0","adblue":"0","light":"0"},{"ID":"396","zip":"5640","city":"METTET","street":"RUE HENNEVAUCHE 3","lat":"50.31223896","lng":"4.662323","partner":"esso","has_products":1,"lpg":"0","cng":"0","igo":"0","shop":"0","adblue":"0","light":"0"},{"ID":"397","zip":"7387","city":"HONNELLES-ROISIN","street":"RUE BOURDON 69","lat":"50.32933428","lng":"3.68687564","partner":"esso","has_products":1,"lpg":"0","cng":"0","igo":"0","shop":"0","adblue":"0","light":"0"},{"ID":"398","zip":"6280","city":"GERPINNES","street":"CHAUSSEE DE PHILIPPEVILLE 152","lat":"50.36036672","lng":"4.4697243","partner":"esso","has_products":1,"lpg":"0","cng":"0","igo":"0","shop":"0","adblue":"0","light":"0"},{"ID":"399","zip":"7041","city":"HAVAY","street":"CHAUSSEE DE MAUBEUGE 69A","lat":"50.36539034","lng":"3.96706223","partner":"esso","has_products":1,"lpg":"0","cng":"0","igo":"0","shop":"0","adblue":"0","light":"0"},{"ID":"400","zip":"6110","city":"MONTIGNY-LE-TILLEUL","street":"RUE DE GOZEE 389","lat":"50.37937703","lng":"4.37229037","partner":"esso","has_products":1,"lpg":"0","cng":"0","igo":"0","shop":"0","adblue":"0","light":"0"},{"ID":"401","zip":"6010","city":"CHARLEROI COUILLET","street":"ROUTE DE PHILIPPEVILLE 297","lat":"50.3848091","lng":"4.4640702","partner":"esso","has_products":1,"lpg":"0","cng":"0","igo":"0","shop":"0","adblue":"0","light":"0"},{"ID":"402","zip":"6150","city":"ANDERLUES","street":"RUE DE THUIN 399","lat":"50.38910506","lng":"4.28174436","partner":"esso","has_products":1,"lpg":"0","cng":"0","igo":"0","shop":"0","adblue":"0","light":"0"},{"ID":"403","zip":"7120","city":"ESTINNES-AU-MONT","street":"CHAUSSEE DE BRUNEHAUT 87","lat":"50.40093404","lng":"4.10791844","partner":"esso","has_products":1,"lpg":"0","cng":"0","igo":"0","shop":"0","adblue":"0","light":"0"},{"ID":"404","zip":"7134","city":"EPINOIS","street":"ROUTE DE CHARLEROI 150","lat":"50.41002178","lng":"4.1991806","partner":"esso","has_products":1,"lpg":"0","cng":"0","igo":"0","shop":"0","adblue":"0","light":"0"},{"ID":"405","zip":"6000","city":"CHARLEROI","street":"GRAND RUE 65","lat":"50.41830795","lng":"4.45435524","partner":"esso","has_products":1,"lpg":"0","cng":"0","igo":"0","shop":"0","adblue":"0","light":"0"},{"ID":"406","zip":"6031","city":"MONCEAU-SUR-SAMBRE","street":"ROUTE DE TRAZEGNIES 281","lat":"50.42180794","lng":"4.38555658","partner":"esso","has_products":1,"lpg":"0","cng":"0","igo":"0","shop":"0","adblue":"0","light":"0"},{"ID":"407","zip":"6042","city":"LODELINSART","street":"CHAUSSEE DE CHATELET 393","lat":"50.42969223","lng":"4.45855021","partner":"esso","has_products":1,"lpg":"0","cng":"0","igo":"0","shop":"0","adblue":"0","light":"0"},{"ID":"408","zip":"6240","city":"FARCIENNES","street":"RUE DU WAINAGE 1","lat":"50.44227464","lng":"4.53099132","partner":"esso","has_products":1,"lpg":"0","cng":"0","igo":"0","shop":"0","adblue":"0","light":"0"},{"ID":"409","zip":"7033","city":"CUESMES","street":"RUE DU CHEMIN DE FER 231","lat":"50.44419289","lng":"3.9276123","partner":"esso","has_products":1,"lpg":"0","cng":"0","igo":"0","shop":"0","adblue":"0","light":"0"},{"ID":"410","zip":"7141","city":"CARNIERES","street":"CH BRUNEHAULT 99","lat":"50.45096164","lng":"4.24576521","partner":"esso","has_products":1,"lpg":"0","cng":"0","igo":"0","shop":"0","adblue":"0","light":"0"},{"ID":"411","zip":"7000","city":"MONS","street":"CHAUSSEE DE BINCHE 50A","lat":"50.45137184","lng":"3.98235159","partner":"esso","has_products":1,"lpg":"0","cng":"0","igo":"0","shop":"0","adblue":"0","light":"0"},{"ID":"412","zip":"7330","city":"ST-GHISLAIN","street":"RUE DE LA RIVIERETTE 182","lat":"50.45674583","lng":"3.82182598","partner":"esso","has_products":1,"lpg":"0","cng":"0","igo":"0","shop":"0","adblue":"1","light":"0"},{"ID":"413","zip":"6220","city":"FLEURUS","street":"CHAUSSEE DE CHARLEROI 651","lat":"50.46336424","lng":"4.53377008","partner":"esso","has_products":1,"lpg":"0","cng":"0","igo":"0","shop":"0","adblue":"0","light":"0"},{"ID":"414","zip":"7100","city":"LA LOUVIERE","street":"RUE DE LA CROYERE 71","lat":"50.48872966","lng":"4.20062363","partner":"esso","has_products":1,"lpg":"0","cng":"0","igo":"0","shop":"0","adblue":"0","light":"0"},{"ID":"415","zip":"7110","city":"HOUDENG-GOEGNIES","street":"CH.P. HOUTART 342","lat":"50.48876721","lng":"4.1533792","partner":"esso","has_products":1,"lpg":"0","cng":"0","igo":"0","shop":"0","adblue":"0","light":"0"},{"ID":"416","zip":"4900","city":"SPA","street":"RUE MARTEAU 8","lat":"50.48994682","lng":"5.83136608","partner":"esso","has_products":1,"lpg":"0","cng":"0","igo":"0","shop":"0","adblue":"0","light":"0"},{"ID":"417","zip":"7331","city":"BAUDOUR","street":"RD CHIEVRES 111","lat":"50.4935554","lng":"3.80619407","partner":"esso","has_products":1,"lpg":"0","cng":"0","igo":"0","shop":"0","adblue":"0","light":"0"},{"ID":"418","zip":"7170","city":"MANAGE","street":"GRAND RUE 75","lat":"50.50204191","lng":"4.23433363","partner":"esso","has_products":1,"lpg":"0","cng":"0","igo":"0","shop":"0","adblue":"0","light":"0"},{"ID":"419","zip":"4845","city":"JALHAY","street":"AVENUE JEAN GOUDERS 118","lat":"50.51472961","lng":"5.93063316","partner":"esso","has_products":1,"lpg":"0","cng":"0","igo":"0","shop":"0","adblue":"0","light":"0"},{"ID":"420","zip":"5030","city":"GEMBLOUX","street":"CHAUSSEE DE NAMUR 480","lat":"50.52585367","lng":"4.75277513","partner":"esso","has_products":1,"lpg":"0","cng":"0","igo":"0","shop":"0","adblue":"0","light":"0"},{"ID":"421","zip":"5140","city":"SOMBREFFE","street":"CHAUSSEE DE NIVELLES 130BIS","lat":"50.52807885","lng":"4.59056318","partner":"esso","has_products":1,"lpg":"0","cng":"0","igo":"0","shop":"0","adblue":"0","light":"0"},{"ID":"422","zip":"7970","city":"BELOEIL","street":"RUE D`ATH 77","lat":"50.55460244","lng":"3.73917639","partner":"esso","has_products":1,"lpg":"0","cng":"0","igo":"0","shop":"0","adblue":"0","light":"0"},{"ID":"423","zip":"7060","city":"SOIGNIES","street":"CHAUSSEE DE BRAINE 153","lat":"50.58763378","lng":"4.08895791","partner":"esso","has_products":1,"lpg":"0","cng":"0","igo":"0","shop":"0","adblue":"0","light":"0"},{"ID":"424","zip":"1400","city":"NIVELLES","street":"CHAUSSEE DE MONS 15","lat":"50.58893139","lng":"4.31182265","partner":"esso","has_products":1,"lpg":"0","cng":"0","igo":"0","shop":"0","adblue":"0","light":"0"},{"ID":"425","zip":"7500","city":"TOURNAI","street":"CHAUSSEE DE BRUXELLES 201","lat":"50.60219496","lng":"3.42765927","partner":"esso","has_products":1,"lpg":"0","cng":"0","igo":"0","shop":"0","adblue":"0","light":"0"},{"ID":"426","zip":"1400","city":"NIVELLES","street":"CHAUSSEE DE BRUXELLES 70","lat":"50.60494596","lng":"4.33134913","partner":"esso","has_products":1,"lpg":"0","cng":"0","igo":"0","shop":"0","adblue":"0","light":"0"},{"ID":"427","zip":"7500","city":"TOURNAI","street":"BOULEVARD DELWART 20","lat":"50.61372901","lng":"3.3811444","partner":"esso","has_products":1,"lpg":"0","cng":"0","igo":"0","shop":"0","adblue":"0","light":"0"},{"ID":"428","zip":"1430","city":"REBECQ","street":"ROUTE DE BRUXELLES 27","lat":"50.64940521","lng":"4.15961534","partner":"esso","has_products":1,"lpg":"0","cng":"0","igo":"0","shop":"0","adblue":"0","light":"0"},{"ID":"429","zip":"4000","city":"GLAIN","street":"RUE EUGENE HOUDRET 77","lat":"50.64995878","lng":"5.5472964","partner":"esso","has_products":1,"lpg":"0","cng":"0","igo":"0","shop":"0","adblue":"0","light":"0"},{"ID":"430","zip":"4020","city":"JUPILLE-SUR-MEUSE","street":"RUE DE GAY VILLAGE","lat":"50.65071558","lng":"5.62630355","partner":"esso","has_products":1,"lpg":"0","cng":"0","igo":"0","shop":"0","adblue":"0","light":"0"},{"ID":"431","zip":"7860","city":"LESSINES","street":"CHAUSSEE VICTOR LAMPE (N57)","lat":"50.67262514","lng":"3.86802111","partner":"esso","has_products":1,"lpg":"0","cng":"0","igo":"0","shop":"0","adblue":"0","light":"0"},{"ID":"432","zip":"4041","city":"VOTTEM","street":"RUE SOUS LA VILLE 2","lat":"50.67269467","lng":"5.59326947","partner":"esso","has_products":1,"lpg":"0","cng":"0","igo":"0","shop":"0","adblue":"0","light":"0"},{"ID":"433","zip":"1315","city":"GLIMES","street":"CHAUSSEE DE JODOIGNE 3B","lat":"50.67342729","lng":"4.82640445","partner":"esso","has_products":1,"lpg":"0","cng":"0","igo":"0","shop":"0","adblue":"0","light":"0"},{"ID":"434","zip":"4280","city":"HANNUT","street":"ROUTE DE LANDEN 53","lat":"50.67955305","lng":"5.08184195","partner":"lukoil","has_products":1,"lpg":"0","cng":"0","igo":"0","shop":"0","adblue":"0","light":"0"},{"ID":"435","zip":"1421","city":"BRAINE-L'ALLEUD","street":"CHAUSSEE DE NIVELLES 98","lat":"50.68182367","lng":"4.39935923","partner":"esso","has_products":1,"lpg":"0","cng":"0","igo":"0","shop":"0","adblue":"0","light":"0"},{"ID":"436","zip":"7740","city":"PECQ","street":"RUE DE COURTRAI 151","lat":"50.68857025","lng":"3.33893304","partner":"esso","has_products":1,"lpg":"0","cng":"0","igo":"0","shop":"0","adblue":"0","light":"0"},{"ID":"437","zip":"1540","city":"HERNE","street":"STEENWEG OP EDINGEN 67","lat":"50.69857453","lng":"4.03585553","partner":"esso","has_products":1,"lpg":"0","cng":"0","igo":"0","shop":"0","adblue":"1","light":"0"},{"ID":"438","zip":"4367","city":"CRISNEE","street":"GRAND ROUTE 81","lat":"50.71074395","lng":"5.39348781","partner":"esso","has_products":1,"lpg":"0","cng":"0","igo":"0","shop":"0","adblue":"0","light":"0"},{"ID":"439","zip":"7712","city":"HERSEAUX","street":"RUE DU PETIT AUDENAERDE 41","lat":"50.71208997","lng":"3.23869094","partner":"esso","has_products":1,"lpg":"0","cng":"0","igo":"0","shop":"0","adblue":"0","light":"0"},{"ID":"440","zip":"7912","city":"DERGNEAU","street":"CHAUSSEE DE RENAIX 96","lat":"50.71399131","lng":"3.57916653","partner":"esso","has_products":1,"lpg":"0","cng":"0","igo":"0","shop":"0","adblue":"0","light":"0"},{"ID":"441","zip":"1300","city":"WAVRE","street":"BOULEVARD DE L'EUROPE 4","lat":"50.7140049","lng":"4.61027741","partner":"esso","has_products":1,"lpg":"0","cng":"0","igo":"0","shop":"0","adblue":"0","light":"0"},{"ID":"442","zip":"1410","city":"WATERLOO","street":"CH. DE BRUXELLES 69","lat":"50.72435691","lng":"4.39857066","partner":"esso","has_products":1,"lpg":"0","cng":"0","igo":"0","shop":"0","adblue":"0","light":"0"},{"ID":"443","zip":"4360","city":"OREYE","street":"GRAND ROUTE 122","lat":"50.7311721","lng":"5.34417272","partner":"esso","has_products":1,"lpg":"0","cng":"0","igo":"0","shop":"0","adblue":"0","light":"0"},{"ID":"444","zip":"1370","city":"JODOIGNE","street":"CHAUSSEE DE WAVRE 325","lat":"50.73247594","lng":"4.82879162","partner":"esso","has_products":1,"lpg":"0","cng":"0","igo":"0","shop":"0","adblue":"0","light":"0"},{"ID":"445","zip":"7700","city":"MOUSCRON","street":"BOULEVARD INDUSTRIEL 23","lat":"50.7434107","lng":"3.2332566","partner":"esso","has_products":1,"lpg":"0","cng":"0","igo":"0","shop":"0","adblue":"0","light":"0"},{"ID":"446","zip":"7700","city":"MOESKROEN","street":"RUE DE MENIN 142","lat":"50.74887592","lng":"3.21124315","partner":"esso","has_products":1,"lpg":"0","cng":"0","igo":"0","shop":"0","adblue":"0","light":"0"},{"ID":"447","zip":"9600","city":"RONSE","street":"STEENWEG OP NINOVE 499","lat":"50.75321024","lng":"3.63899589","partner":"esso","has_products":1,"lpg":"0","cng":"0","igo":"0","shop":"0","adblue":"0","light":"0"},{"ID":"448","zip":"3700","city":"TONGEREN","street":"LUIKERSTENWEG 216","lat":"50.76479206","lng":"5.47173321","partner":"esso","has_products":1,"lpg":"0","cng":"0","igo":"0","shop":"0","adblue":"1","light":"0"},{"ID":"449","zip":"1640","city":"RHODE ST. GENESE","street":"CH. DE WATERLOO 2","lat":"50.76844621","lng":"4.38233793","partner":"esso","has_products":1,"lpg":"0","cng":"0","igo":"0","shop":"0","adblue":"0","light":"0"},{"ID":"450","zip":"8511","city":"AALBEKE","street":"MOESKROENSTEENWEG 177","lat":"50.7716336","lng":"3.22652578","partner":"esso","has_products":1,"lpg":"0","cng":"0","igo":"0","shop":"0","adblue":"0","light":"0"},{"ID":"451","zip":"3700","city":"TONGEREN","street":"ST-TRUIDENSTEENWEG 230","lat":"50.77673653","lng":"5.44083282","partner":"esso","has_products":1,"lpg":"0","cng":"0","igo":"0","shop":"0","adblue":"0","light":"0"},{"ID":"452","zip":"8580","city":"AVELGEM","street":"LEYNSEELSTRAAT 152\/154","lat":"50.77846056","lng":"3.42635036","partner":"esso","has_products":1,"lpg":"0","cng":"0","igo":"0","shop":"0","adblue":"0","light":"0"},{"ID":"453","zip":"3090","city":"OVERIJSE","street":"STEENWEG OP BRUSSEL 401","lat":"50.78541371","lng":"4.50112224","partner":"esso","has_products":1,"lpg":"0","cng":"0","igo":"0","shop":"0","adblue":"0","light":"0"},{"ID":"454","zip":"1180","city":"UCCLE","street":"CHAUSSEE DE WATERLOO 1242","lat":"50.79363744","lng":"4.37416792","partner":"esso","has_products":1,"lpg":"0","cng":"0","igo":"0","shop":"0","adblue":"1","light":"0"},{"ID":"455","zip":"8500","city":"KORTRIJK","street":"`T HOGE 118","lat":"50.79487511","lng":"3.28867257","partner":"esso","has_products":1,"lpg":"0","cng":"0","igo":"0","shop":"0","adblue":"0","light":"0"},{"ID":"456","zip":"3800","city":"BRUSTEM","street":"LUIKERSTEENWEG 235","lat":"50.79942201","lng":"5.20971358","partner":"esso","has_products":1,"lpg":"0","cng":"0","igo":"0","shop":"0","adblue":"0","light":"0"},{"ID":"457","zip":"8930","city":"MENEN","street":"IEPERSTRAAT 365","lat":"50.80235901","lng":"3.1022572","partner":"esso","has_products":1,"lpg":"0","cng":"0","igo":"0","shop":"0","adblue":"0","light":"0"},{"ID":"458","zip":"3800","city":"SINT-TRUIDEN","street":"NAAMSESTEENWEG 249","lat":"50.8023937","lng":"5.17995447","partner":"esso","has_products":1,"lpg":"0","cng":"0","igo":"0","shop":"0","adblue":"0","light":"0"},